     2.10           OBSERVATION DATA    G (GPS)             RINEX VERSION / TYPE
JPS2RIN 1.06        RUN BY              04-SEP-01 11:44     PGM / RUN BY / DATE
build September 14, 2000                                    COMMENT
RUN BY;COMMENT;MARKER NAME;MARKER NUMBER;OBSERVER;AGENCY;   COMMENT
ANT #;ANT TYPE - You can set in profile.                    COMMENT
kai0001.jps                                                 COMMENT
Site                                                        MARKER NAME
                                                            MARKER NUMBER
OBSERVER            AGENCY                                  OBSERVER / AGENCY
MT300402820         JPS EUROCARD        2.2 Apr,25,2001 r   REC # / TYPE / VERS
kai0001             -Unknown-                               ANT # / TYPE
  3427820.3520   603655.8174  5326881.0837                  APPROX POSITION XYZ
        0.0000        0.0000        0.0000                  ANTENNA: DELTA H/E/N
     1     1                                                WAVELENGTH FACT L1/2
  2001     9     4     9    40    0.0000000     GPS         TIME OF FIRST OBS
  2001     9     4     9    40   22.0000000     GPS         TIME OF LAST OBS
     1.000                                                  INTERVAL
    13                                                      LEAP SECONDS
     7                                                      # OF SATELLITES
     7    C1    P1    P2    L1    L2    D1    D2            # / TYPES OF OBSERV
   G 1    23    23    23    23    23    23    23            PRN / # OF OBS
   G 4    23    23    23    23    23    23    23            PRN / # OF OBS
   G 7    23    16    15    23    15    23    15            PRN / # OF OBS
   G13    23    23    23    23    23    23    23            PRN / # OF OBS
   G20    23    23    23    23    23    23    23            PRN / # OF OBS
   G24    23    23    23    23    23    23    23            PRN / # OF OBS
   G25    23    23    23    23    23    23    23            PRN / # OF OBS
                                                            END OF HEADER
 01  9  4  9 40  0.0000000  0  7G 1G 4G13G20G25G24G 7               
  20443607.415 8  20443606.97546  20443610.91446 107431879.641    83713169.4574 
      -832.090        -648.366  
  21167113.318 8  21167113.40245  21167116.21545 111233931.291    86675804.7454 
       669.511         521.722  
  21179308.769 8  21179308.68645  21179311.59345 111298019.195    86725746.0114 
      1781.989        1388.574  
  21811609.989 7  21811609.41144  21811613.92544 114620781.902    89314904.5604 
     -3141.490       -2447.910  
  24016244.871 5  24016245.58141  24016250.94341 126206214.360    98342516.1574 
     -2930.635       -2283.603  
  23740092.736 6  23740092.19543  23740098.23143 124755036.787    97211729.0684 
      2613.232        2036.299  
  24560381.820 5  24560379.69041  24560387.72841 129065653.965   100570652.4564 
     -3555.046       -2770.019  
 01  9  4  9 40  1.0000000  0  7G 1G 4G13G20G25G24G 7               
  20443766.180 8  20443765.43546  20443769.32446 107432712.317    83713818.2934 
      -832.813        -648.942  
  21166986.041 8  21166986.06145  21166989.05345 111233262.441    86675283.5654 
       668.625         521.004  
  21178969.804 8  21178969.76045  21178972.60045 111296237.843    86724357.9444 
      1781.190        1387.940  
  21812207.616 7  21812207.24944  21812211.64544 114623923.812    89317352.7974 
     -3141.999       -2448.304  
  24016801.740 5  24016803.14141  24016809.09941 126209145.454    98344800.1344 
     -2931.307       -2284.106  
  23739595.555 7  23739595.10543  23739601.37343 124752423.988    97209693.1214 
      2612.786        2035.933  
  24561057.971 5  24561054.42141  24561066.16241 129069209.842   100573423.2514 
     -3555.581       -2770.547  
 01  9  4  9 40  2.0000000  0  7G 1G 4G13G20G25G24G 7               
  20443924.824 8  20443923.96046  20443927.81546 107433545.706    83714467.6874 
      -833.400        -649.393  
  21166858.958 8  21166858.94045  21166862.08145 111232594.371    86674762.9924 
       668.028         520.529  
  21178631.065 8  21178630.91045  21178633.82945 111294457.106    86722970.3584 
      1780.747        1387.583  
  21812805.391 7  21812805.28944  21812809.63144 114627066.207    89319801.4144 
     -3142.213       -2448.470  
  24017360.015 5  24017359.99241  24017366.50341 126212077.086    98347084.4964 
     -2931.405       -2284.167  
  23739098.547 7  23739098.24543  23739104.23343 124749811.644    97207657.5294 
      2612.387        2035.621  
  24561733.571 5  24561728.75841  24561744.38941 129072766.016   100576194.2894 
     -3556.038       -2771.034  
 01  9  4  9 40  3.0000000  0  7G 1G 4G13G20G25G24G 7               
  20444083.372 8  20444082.56146  20444086.50046 107434379.193    83715117.1574 
      -833.940        -649.827  
  21166731.899 8  21166731.76545  21166735.04745 111231926.448    86674242.5334 
       667.411         520.060  
  21178292.281 8  21178292.12945  21178294.88145 111292676.385    86721582.7834 
      1780.377        1387.319  
  21813403.633 7  21813403.32744  21813407.50944 114630208.487    89322249.9404 
     -3142.562       -2448.746  
  24017918.078 5  24017916.95341  24017924.89241 126215008.707    98349368.8894 
     -2932.110       -2284.770  
  23738601.418 7  23738600.99943  23738606.62443 124747199.102    97205621.7884 
      2612.363        2035.627  
  24562410.166 5  24562402.82741  24562417.11241 129076321.897   100578965.1264 
     -3556.021       -2770.872  
 01  9  4  9 40  4.0000000  0  7G 1G 4G13G20G25G24G 7               
  20444241.800 8  20444241.16646  20444245.06446 107435213.169    83715767.0074 
      -833.925        -649.827  
  21166604.856 8  21166604.86345  21166607.96345 111231259.061    86673722.4914 
       667.490         520.117  
  21177953.335 8  21177953.32645  21177956.16145 111290896.076    86720195.5314 
      1780.397        1387.306  
  21814001.904 7  21814001.12444  21814005.66144 114633351.066    89324698.7044 
     -3142.396       -2448.627  
  24018475.768 5  24018474.67541  24018484.19641 126217940.675    98351653.5444 
     -2931.711       -2284.460  
  23738103.975 7  23738104.13943  23738109.07843 124744586.807    97203586.2344 
      2612.490        2035.693  
  24563088.930 5  24563081.74541  24563091.27341 129079877.904   100581736.0424 
     -3555.631       -2770.521  
 01  9  4  9 40  5.0000000  0  7G 1G 4G13G20G25G24G 7               
  20444400.830 8  20444399.77246  20444403.83546 107436047.416    83716417.0704 
      -834.433        -650.208  
  21166478.080 7  21166477.90145  21166480.94345 111230592.007    86673202.7094 
       666.855         519.623  
  21177614.369 8  21177614.53045  21177617.30645 111289115.943    86718808.4174 
      1779.938        1386.955  
  21814599.753 7  21814599.21344  21814604.10444 114636493.691    89327147.5034 
     -3142.702       -2448.862  
  24019034.190 5  24019033.38841  24019042.01541 126220872.808    98353938.3344 
     -2932.563       -2285.048  
  23737607.355 7  23737607.04843  23737612.04843 124741974.503    97201550.6754 
      2612.330        2035.602  
  24563763.311 5  24563761.32841  24563766.57541 129083433.745   100584506.8124 
     -3556.009       -2770.748  
 01  9  4  9 40  6.0000000  0  7G 1G 4G13G20G25G24G 7               
  20444559.782 8  20444558.62646  20444562.66146 107436881.942    83717067.3504 
      -835.284        -650.873  
  21166351.008 8  21166350.98845  21166354.09945 111229925.281    86672683.1824 
       665.953         518.939  
  21177275.733 8  21177275.83345  21177278.55845 111287336.023    86717421.4684 
      1779.154        1386.356  
  21815197.901 7  21815197.01244  21815201.94544 114639636.388    89329596.3534 
     -3143.370       -2449.384  
  24019592.826 5  24019591.23441  24019599.86141 126223805.083    98356223.2114 
     -2932.991       -2285.478  
  23737109.902 7  23737110.02643  23737114.97843 124739362.221    97199515.1314 
      2611.576        2035.017  
  24564438.925 5  24564437.83741  24564441.13141 129086989.529   100587277.5734 
     -3556.436       -2771.424  
 01  9  4  9 40  7.0000000  0  7G 1G 4G13G20G25G24G 7               
  20444718.497 8  20444717.71746  20444721.65246 107437717.317    83717718.2884 
      -835.738        -651.212  
  21166224.277 8  21166224.19245  21166227.40545 111229259.461    86672164.3614 
       665.459         518.547  
  21176937.314 8  21176937.25345  21176939.90045 111285556.855    86716035.0964 
      1778.844        1386.125  
  21815795.530 7  21815795.12644  21815800.33744 114642779.705    89332045.6894 
     -3143.538       -2449.508  
  24020150.383 5  24020149.79041  24020158.23741 126226738.086    98358508.6604 
     -2933.513       -2285.869  
  23736613.420 6  23736612.78043  23736618.27643 124736750.523    97197480.0354 
      2611.566        2035.003  
  24565115.476 5  24565116.76641  24565117.75641 129090545.724   100590048.6144 
     -3556.592       -2771.358  
 01  9  4  9 40  8.0000000  0  7G 1G 4G13G20G25G24G 7               
  20444877.543 8  20444876.70546  20444880.73946 107438553.074    83718369.5294 
      -836.192        -651.578  
  21166097.690 8  21166097.57345  21166100.83245 111228594.066    86671645.8724 
       664.824         518.050  
  21176598.742 8  21176598.71245  21176601.44445 111283777.976    86714648.9584 
      1778.519        1385.860  
  21816393.826 7  21816393.36544  21816398.37744 114645923.200    89334495.1644 
     -3143.828       -2449.727  
  24020708.122 5  24020707.55441  24020716.07241 126229671.325    98360794.3114 
     -2933.621       -2285.957  
  23736116.183 7  23736115.89543  23736121.46143 124734138.923    97195445.0214 
      2611.304        2034.770  
  24565791.755 5  24565794.99041  24565792.16241 129094101.909   100592819.6544 
     -3556.450       -2771.338  
 01  9  4  9 40  9.0000000  0  7G 1G 4G13G20G25G24G 7               
  20445036.544 8  20445035.74746  20445039.85746 107439389.039    83719020.9304 
      -835.870        -651.332  
  21165971.209 8  21165970.87245  21165974.05345 111227928.937    86671127.5914 
       665.300         518.405  
  21176260.109 8  21176260.24945  21176262.98145 111281999.241    86713262.9334 
      1778.951        1386.190  
  21816992.120 7  21816991.48244  21816996.66744 114649066.688    89336944.6314 
     -3143.238       -2449.266  
  24021266.562 5  24021266.15941  24021274.21741 126232604.624    98363079.9564 
     -2932.918       -2285.235  
  23735619.319 6  23735619.01843  23735624.52443 124731527.265    97193409.9714 
      2611.890        2035.221  
  24566470.879 5  24566471.58641  24566467.07341 129097657.967   100595590.6044 
     -3555.587       -2770.641  
 01  9  4  9 40 10.0000000  0  7G 1G 4G13G20G25G24G 7               
  20445195.789 8  20445194.90446  20445198.98946 107440225.302    83719672.5634 
      -836.435        -651.767  
  21165844.616 8  21165844.46145  21165847.46945 111227264.170    86670609.5924 
       664.560         517.852  
  21175921.347 8  21175921.85845  21175924.52545 111280220.710    86711877.0674 
      1778.393        1385.762  
  21817590.389 7  21817589.57544  21817594.76044 114652210.254    89339394.1604 
     -3143.667       -2449.598  
  24021823.986 5  24021824.54841  24021832.44141 126235538.137    98365365.8264 
     -2933.507       -2285.956  
  23735122.123 6  23735122.12643  23735127.63443 124728915.635    97191374.9294 
      2611.742        2035.143  
  24567145.407 5  24567147.93941  24567141.37941 129101213.893   100598361.4684 
     -3555.854       -2770.885  
 01  9  4  9 40 11.0000000  0  7G 1G 4G13G20G25G24G 7               
  20445355.143 8  20445354.00346  20445358.18946 107441062.011    83720324.5444 
      -836.849        -652.099  
  21165718.173 7  21165718.02845  21165721.29345 111226599.904    86670091.9814 
       664.056         517.455  
  21175583.260 8  21175583.52745  21175586.12545 111278442.555    86710491.4904 
      1778.056        1385.506  
  21818188.719 7  21818187.85644  21818193.03644 114655354.061    89341843.8774 
     -3143.879       -2449.780  
  24022383.208 5  24022383.11741  24022391.28841 126238471.946    98367651.9104 
     -2933.915       -2286.134  
  23734625.582 6  23734625.06043  23734630.47543 124726304.195    97189340.0444 
      2611.643        2035.057  
  24567822.438 5  24567826.86841  24567818.40641 129104769.914   100601132.4564 
     -3555.694       -2770.770  
 01  9  4  9 40 12.0000000  0  7G 1G 4G13G20G25G24G 7               
  20445514.379 8  20445513.32846  20445517.40046 107441898.962    83720976.7144 
      -836.808        -652.050  
  21165591.910 7  21165591.66145  21165594.85545 111225935.928    86669574.5984 
       664.037         517.444  
  21175245.094 7  21175245.08345  21175247.82245 111276664.551    86709106.0354 
      1778.286        1385.682  
  21818786.789 7  21818786.58644  21818791.16744 114658497.889    89344293.6144 
     -3143.601       -2449.569  
  24022941.346 5  24022941.25641  24022949.56441 126241405.872    98369938.0674 
     -2933.778       -2286.062  
  23734128.379 7  23734128.01943  23734133.38443 124723692.711    97187305.1194 
      2611.781        2035.159  
  24568499.193 4  24568506.66741  24568493.31741 129108325.748   100603903.7134 
     -3555.637       -2770.535  
 01  9  4  9 40 13.0000000  0  7G 1G 4G13G20G25G24G 7               
  20445673.347 8  20445672.78246  20445676.76546 107442736.421    83721629.2764 
      -838.180        -653.135  
  21165465.798 8  21165465.41345  21165468.69145 111225272.509    86669057.6464 
       662.651         516.349  
  21174906.683 8  21174906.79045  21174909.50245 111274886.970    86707720.9064 
      1776.830        1384.538  
  21819384.814 7  21819384.90944  21819389.43944 114661642.021    89346743.5804 
     -3144.872       -2450.575  
  24023499.596 5  24023499.12341  24023508.23441 126244340.167    98372224.5384 
     -2934.989       -2286.963  
  23733631.126 7  23733631.38043  23733636.62043 124721081.487    97185270.4084 
      2610.638        2034.238  
  24569174.630 4  24569183.78441  24569170.59041 129111881.734   100606674.5984 
     -3556.940       -2771.659  
 01  9  4  9 40 14.0000000  0  7G 1G 4G13G20G25G24G 7               
  20445832.946 8  20445832.33846  20445836.24046 107443574.399    83722282.2454 
      -838.361        -653.278  
  21165339.431 8  21165339.37245  21165342.51545 111224609.663    86668541.1424 
       662.449         516.189  
  21174568.300 8  21174568.61545  21174571.30745 111273109.814    86706336.1104 
      1776.821        1384.522  
  21819983.287 7  21819983.02344  21819987.83644 114664786.428    89349193.7644 
     -3144.737       -2450.442  
  24024057.592 5  24024057.28041  24024065.87241 126247274.851    98374511.3144 
     -2935.150       -2287.104  
  23733133.813 7  23733134.08443  23733139.86843 124718470.498    97183235.8724 
      2610.747        2034.370  
  24569852.017 4  24569860.33841  24569848.85741 129115437.807   100609445.5424 
     -3556.534       -2771.131  
 01  9  4  9 40 15.0000000  0  7G 1G 4G13G20G25G24G 7               
  20445992.393 8  20445991.78446  20445995.78446 107444412.567    83722935.3654 
      -838.205        -653.134  
  21165213.275 8  21165213.28745  21165216.37645 111223947.075    86668024.8434 
       662.597         516.307  
  21174230.286 8  21174230.48745  21174233.22845 111271332.781    86704951.4134 
      1777.121        1384.795  
  21820581.510 7  21820581.39844  21820586.08344 114667930.829    89351643.9484 
     -3144.181       -2450.000  
  24024615.966 5  24024615.86141  24024623.96441 126250209.574    98376798.0984 
     -2934.809       -2286.917  
  23732637.414 7  23732637.24443  23732642.97343 124715859.435    97181201.2744 
      2611.306        2034.788  
  24570528.961 4  24570538.20641     nan         129118993.746       nan           
     -3555.835          nan        
 01  9  4  9 40 16.0000000  0  7G 1G 4G13G20G25G24G 7               
  20446152.009 8  20446151.38846  20446155.24746 107445250.969    83723588.6634 
      -838.896        -653.690  
  21165087.455 8  21165087.18145  21165090.27845 111223284.781    86667508.7694 
       661.766         515.659  
  21173892.138 8  21173892.33545  21173895.05045 111269555.894    86703566.8244 
      1776.448        1384.240  
  21821179.649 7  21821179.62544  21821184.44544 114671075.256    89354094.1484 
     -3144.836       -2450.535  
  24025174.523 5  24025174.34141  24025183.88141 126253144.411    98379084.9784 
     -2935.171       -2287.118  
  23732140.529 6  23732140.63643  23732145.92243 124713248.371    97179166.6774 
      2610.784        2034.363  
  24571204.602 4     nan            nan          129122549.457      nan            
     -3556.547        nan            
 01  9  4  9 40 17.0000000  0  7G 1G 4G13G20G25G24G 7               
  20446311.750 8  20446310.97746  20446315.02146 107446089.972    83724242.4314 
      -839.221        -653.924  
  21164961.405 8  21164961.28145  21164964.72645 111222623.145    86666993.2074 
       661.466         515.435  
  21173554.022 8  21173554.24145  21173557.16145 111267779.515    86702182.6314 
      1776.334        1384.162  
  21821778.078 7  21821777.77844  21821783.23044 114674220.055    89356544.6334 
     -3144.852       -2450.537  
  24025732.788 5  24025733.42641  24025741.42841 126256079.729    98381372.2474 
     -2935.523       -2287.469  
  23731643.739 7  23731643.69043  23731648.72643 124710637.608    97177132.3194 
      2610.571        2034.208  
  24571880.522 4      nan              nan       129126105.386         nan         
     -3555.819        nan          
 01  9  4  9 40 18.0000000  0  7G 1G 4G13G20G25G24G 7               
  20446471.460 8  20446470.86146  20446474.74746 107446929.472    83724896.5874 
      -840.107        -654.627  
  21164835.859 8  21164835.52945  21164838.90845 111221962.081    86666478.0894 
       660.484         514.672  
  21173216.106 8  21173216.23445  21173219.24145 111266003.561    86700798.7704 
      1775.542        1383.545  
  21822376.895 7  21822376.52544  21822381.49344 114677365.156    89358995.3604 
     -3145.582       -2451.094  
  24026291.562 5  24026291.63941  24026299.38541 126259015.418    98383659.8204 
     -2935.979       -2287.764  
  23731147.013 7  23731147.04143  23731152.05043 124708027.098    97175098.1514 
      2610.048        2033.831  
  24572556.644 4      nan             nan        129129661.425           nan       
     -3556.114        nan          
 01  9  4  9 40 19.0000000  0  7G 1G 4G13G20G25G24G 7               
  20446631.253 8  20446630.65746  20446634.60046 107447769.247    83725550.9574 
      -839.769        -654.368  
  21164710.055 8  21164709.80245  21164713.20445 111221301.348    86665963.2364 
       660.683         514.800  
  21172878.367 8  21172878.27745  21172881.39345 111264227.796    86699415.0604 
      1775.823        1383.759  
  21822975.536 7  21822975.09244  21822979.95244 114680510.299    89361446.1194 
     -3144.962       -2450.623  
  24026850.780 5  24026851.48441  24026858.13341 126261951.230    98385947.4524 
     -2935.951       -2287.753  
  23730650.081 7  23730650.06843  23730655.89543 124705416.574    97173063.9844 
      2610.611        2034.229  
  24573233.944 4       nan              nan      129133217.347             nan     
     -3555.846         nan         
 01  9  4  9 40 20.0000000  0  7G 1G 4G13G20G25G24G 7               
  20446791.160 8  20446790.53846  20446794.46546 107448609.578    83726205.7614 
      -840.562        -655.003  
  21164584.706 8  21164584.15945  21164587.56845 111220641.204    86665448.8414 
       659.801         514.116  
  21172540.658 8  21172540.55545  21172543.44945 111262452.504    86698031.7184 
      1775.016        1383.112  
  21823573.923 7  21823573.71344  21823578.44544 114683655.802    89363897.1604 
     -3145.599       -2451.138  
  24027410.397 5  24027410.40641  24027417.22441 126264887.471    98388235.4184 
     -2936.494       -2288.134  
  23730152.996 7  23730153.46943  23730159.18943 124702806.350    97171030.0454 
      2610.037        2033.776  
  24573911.746 4        nan           nan        129136773.437            nan      
     -3556.188          nan        
 01  9  4  9 40 21.0000000  0  7G 1G 4G13G20G25G24G 7               
  20446951.178 8  20446950.34046  20446954.37946 107449450.019    83726860.6534 
      -840.023        -654.568  
  21164458.786 8  21164458.53845  21164462.07145 111219981.238    86664934.5854 
       660.446         514.625  
  21172202.761 8  21172202.81645  21172205.63845 111260677.235    86696648.3944 
      1775.799        1383.739  
  21824172.402 7  21824172.20844  21824177.08444 114686801.199    89366348.1124 
     -3144.770       -2450.474  
  24027968.520 5  24027968.19741  24027974.99241 126267823.716    98390523.4084 
     -2935.698       -2287.553  
  23729656.957 7  23729656.73343  23729662.45743 124700195.974    97168995.9824 
      2611.021        2034.584  
  24574590.004 4       nan          nan          129140329.183          nan        
     -3554.821         nan         
 01  9  4  9 40 22.0000000  0  7G 1G 4G13G20G25G24G 7               
  20447111.372 8  20447110.22846  20447114.41346 107450290.784    83727515.7924 
      -841.182        -655.479  
  21164333.392 8  21164332.99345  21164336.59345 111219321.639    86664420.6094 
       659.252         513.692  
  21171865.087 8  21171865.01445  21171867.87645 111258902.209    86695265.2584 
      1774.777        1382.938  
  21824771.035 7  21824770.84244  21824775.87544 114689946.672    89368799.1224 
     -3145.685       -2451.170  
  24028526.870 5  24028526.91241  24028534.02941 126270760.115    98392811.4984 
     -2936.760       -2288.415  
  23729160.023 7  23729160.33543  23729165.64143 124697585.646    97166961.9614 
      2610.073        2033.848  
  24575265.824 4       nan         nan           129143884.955      nan            
     -3555.992         nan         
