     2              OBSERVATION DATA                        RINEX VERSION / TYPE
ASHTORIN                                20 - APR - 96 13:01 PGM / RUN BY / DATE
                                                            COMMENT
0810                                                        MARKER NAME
                                                            MARKER NUMBER
___                                                         OBSERVER / AGENCY
                    Z-XII3              1C001C0             REC # / TYPE / VERS
                                                            ANT # / TYPE
  3436346.5800   603307.1300  5321371.0000                  APPROX POSITION XYZ
        1.2600        0.0000        0.0000                  ANTENNA: DELTA H/E/N
     1     1                                                WAVELENGTH FACT L1/2
     7    L1    L2    C1    P1    P2    D1    D2            # / TYPES OF OBSERV
    20                                                      INTERVAL
  1994     3    17     8    30   20.000000                  TIME OF FIRST OBS
  1994     3    17    11    18   39.990000                  TIME OF LAST OBS
                                                            END OF HEADER
 94  3 17  8 31 20.0000000  0  4 19 27 17 16                         0.000537861
    210895.422 9    154251.34348  22254173.255    22254174.7784   22254179.1484
     -1564.026       -1218.722
    -18676.794 9    -13677.82549  20536109.346    20536109.4054   20536113.2084
       162.753         126.821
   -139212.73319    -96913.98956  23671304.871    23671305.0285   23671309.0815
      1631.293        1271.137
    -14202.965 9    -10391.46148  21081417.624    21081417.7184   21081421.8044
       104.680          81.569
 94  3 17  8 31 40.0000000  0  4 19 27 17 16                         0.000523143
    242115.817 9    178578.88448  22260114.519    22260115.8724   22260120.2084
     -1558.133       -1214.130
    -21948.599 9    -16227.29948  20535486.674    20535486.8514   20535490.6214
       164.256         127.992
   -171826.206 9   -122327.08446  23665098.235    23665098.8694   23665102.9474
      1629.986        1270.119
    -16297.330 9    -12023.44748  21081019.019    21081019.1974   21081023.2424
       104.653          81.548
 94  3 17  8 32  0.0000000  0  4 19 27 17 16                         0.000508283
    273234.520 9    202827.18748  22266036.289    22266037.5564   22266041.8884
     -1553.918       -1210.845
    -25232.039 9    -18785.84249  20534861.847    20534862.0634   20534865.7814
       163.798         127.635
   -204393.129 9   -147703.90646  23658900.639    23658901.3944   23658905.8514
      1626.476        1267.384
    -18373.247 9    -13641.06248  21080624.039    21080624.2024   21080628.2124
       102.661          79.996
 94  3 17  8 32 20.0000000  0  4 19 27 17 16                         0.000493280
    304268.445 9    227009.42448  22271941.899    22271943.1474   22271947.4294
     -1549.115       -1207.102
    -28502.358 9    -21334.15649  20534239.538    20534239.7984   20534243.4704
       163.474         127.382
   -236891.967 9   -173027.67446  23652716.449    23652717.0284   23652721.5284
      1623.726        1265.241
    -20408.596 9    -15227.06348  21080236.734    21080236.9144   21080240.9114
       101.148          78.817
 94  3 17  8 32 40.0000000  0  4 19 27 17 16                         0.000478134
    335221.002 9    251128.26948  22277831.929    22277833.2754   22277837.5334
     -1545.918       -1204.611
    -31751.254 9    -23865.79349  20533621.369    20533621.6274   20533625.2474
       161.622         125.939
   -269320.771 9   -198296.87046  23646545.800    23646546.0584   23646550.5964
      1619.298        1261.791
    -22393.191 9    -16773.51648  21079859.067    21079859.2874   21079863.2744
        97.477          75.956
 94  3 17  8 33  0.0000000  0  4 19 27 17 16                         0.000462873
    366099.431 9    275189.35148  22283708.100    22283709.2914   22283713.5624
     -1541.771       -1201.380
    -34976.836 9    -26379.25149  20533007.528    20533007.8674   20533011.4434
       161.065         125.505
   -301669.373 9   -223503.57346  23640390.156    23640390.3884   23640394.8984
      1615.712        1258.996
    -24312.476 9    -18269.07648  21079493.832    21079494.0964   21079498.0794
        94.598          73.713
 94  3 17  8 33 20.0000000  0  6 19 27 17 28 26 16                   0.000447648
    396922.998 9    299207.68147  22289573.724    22289574.8644   22289579.1424
     -1540.092       -1200.072
    -38164.510 9    -28863.17149  20532400.934    20532401.3414   20532404.8574
       158.066         123.168
   -333919.381 9   -248633.45246  23634253.365    23634253.4394   23634257.9524
      1609.729        1254.334
    -82087.14819    -56784.35756  24662378.027    24662378.2255   24662383.1255
      1030.470         802.964
   -238666.08519   -158090.45957  22498400.058    22498401.1915   22498405.6415
      3883.944        3026.450
    -26147.516 9    -19699.00048  21079144.687    21079144.9484   21079148.9194
        89.399          69.662
 94  3 17  8 33 40.0000000  0  7 19 31 27 17 28 26 16                0.000432156
    427702.036 9    323191.31248  22295430.884    22295431.9324   22295436.2804
     -1539.277       -1199.437
   -170817.80919   -114194.18956  24452098.059    24452102.9605   24452107.1385
      2693.407        2098.759
    -41299.209 9    -31305.81549  20531804.451    20531804.8694   20531808.3534
       153.959         119.968
   -366057.509 9   -273676.15746  23628137.504    23628137.7484   23628142.2244
      1602.562        1248.750
   -102656.670 9    -72812.54046  24658463.337    24658463.9214   24658468.5994
      1025.139         798.810
   -316386.303 9   -218651.66847  22483610.862    22483611.8284   22483615.8934
      3886.773        3028.654
    -27889.546 9    -21056.44548  21078813.214    21078813.4964   21078817.4924
        83.372          64.965
 94  3 17  8 34  0.0000000  0  7 19 31 27 17 28 26 16                0.000416603
    458474.740 9    347170.00647  22301286.827    22301287.7934   22301292.2174
     -1538.292       -1198.669
   -224645.668 9   -156137.96745  24441856.649    24441859.9684   24441864.0614
      2689.114        2095.414
    -44340.567 9    -33675.72148  20531225.708    20531226.1604   20531229.6364
       150.009         116.890
   -398038.925 9   -298596.73146  23622051.771    23622051.8604   23622056.4164
      1595.364        1243.141
   -123109.264 9    -88749.64846  24654571.374    24654571.8114   24654576.4204
      1019.958         794.772
   -394155.584 9   -279251.08948  22468812.166    22468812.9804   22468816.9084
      3889.956        3031.135
    -29501.250 9    -22312.32049  21078506.639    21078506.8824   21078510.8804
        77.635          60.495
 94  3 17  8 34 20.0000000  0  7 19 31 27 17 28 26 16                0.000400961
    489234.153 9    371138.35047  22307140.104    22307141.1614   22307145.6324
     -1538.117       -1198.533
   -278382.594 9   -198010.91846  24431631.645    24431634.4274   24431638.0184
      2683.937        2091.379
    -47295.416 9    -35978.21449  20530663.564    20530663.9394   20530667.3834
       145.079         113.049
   -429869.518 9   -323399.79646  23615994.392    23615994.6904   23615999.3214
      1587.317        1236.870
   -143450.204 9   -104599.78346  24650700.712    24650701.0234   24650705.5614
      1013.862         790.022
   -471978.382 9   -339892.23848  22454002.983    22454003.8314   22454007.7744
      3891.836        3032.599
    -30990.103 9    -23472.48649  21078223.332    21078223.5964   21078227.6484
        70.995          55.321
 94  3 17  8 34 40.0000000  0  7 19 31 27 17 28 26 16                0.000385252
    520006.085 9    395116.44348  22312995.948    22312996.8894   22313001.3874
     -1539.020       -1199.236
   -331997.757 9   -239788.96446  24421429.424    24421431.8134   24421435.4794
      2677.689        2086.511
    -50135.486 9    -38191.27649  20530123.107    20530123.5324   20530126.9584
       138.941         108.266
   -461520.613 9   -348063.00846  23609971.338    23609971.6854   23609976.3434
      1577.771        1229.432
   -163651.408 9   -120341.00546  24646856.535    24646856.8274   24646861.4184
      1006.338         784.159
   -549816.771 9   -400545.53048  22439191.015    22439191.6934   22439195.6244
      3891.997        3032.725
    -32332.394 9    -24518.44248  21077967.996    21077968.1774   21077972.2674
        63.300          49.325
 94  3 17  8 35  0.0000000  0  7 19 31 27 17 28 26 16                0.000369470
    550800.834 9    419112.32147  22318856.013    22318856.9854   22318861.4924
     -1540.720       -1200.561
   -385482.872 9   -281465.69046  24411251.939    24411254.0314   24411257.6044
      2670.523        2080.927
    -52846.365 9    -40303.66649  20529607.221    20529607.6904   20529611.1174
       131.832         102.726
   -492974.748 9   -372572.73146  23603985.675    23603986.1484   23603990.8094
      1567.494        1221.424
   -183697.289 9   -135961.19646  24643041.879    24643042.1974   24643046.8204
       997.907         777.590
   -627649.309 9   -461194.26048  22424380.181    22424380.7094   22424384.5894
      3891.026        3031.968
    -33518.124 9    -25442.40148  21077742.246    21077742.5454   21077746.6624
        55.045          42.892
 94  3 17  8 35 20.0000000  0  7 19 31 27 17 28 26 16                0.000353609
    581632.199 9    443136.73347  22324722.968    22324724.0254   22324728.5514
     -1542.580       -1202.010
   -438826.383 9   -323032.06746  24401101.463    24401103.1504   24401106.7784
      2663.701        2075.611
    -55409.944 9    -42301.27649  20529119.410    20529119.8734   20529123.2884
       124.334          96.884
   -524223.454 9   -396922.37746  23598039.278    23598039.6724   23598044.4144
      1557.186        1213.392
   -203569.777 9   -151446.24146  24639260.307    24639260.5544   24639265.1974
       989.126         770.748
   -705461.485 9   -521827.12348  22409572.963    22409573.5974   22409577.4244
      3890.009        3031.176
    -34539.064 9    -26237.95249  21077547.826    21077548.2834   21077552.4564
        46.894          36.541
 94  3 17  8 35 40.0000000  0  7 19 31 27 17 28 26 16                0.000337669
    612504.579 9    467193.10747  22330597.867    22330598.8784   22330603.4014
     -1544.501       -1203.507
   -492028.496 9   -364488.26946  24390977.621    24390979.1614   24390982.8244
      2656.772        2070.212
    -57820.514 9    -44179.65849  20528660.773    20528661.1684   20528664.6094
       116.959          91.137
   -555261.160 9   -421107.59846  23592133.114    23592133.3894   23592138.1534
      1546.770        1205.275
   -223258.675 9   -166788.26446  24635513.668    24635513.9984   24635518.4794
       979.970         763.613
   -783247.400 9   -582439.53248  22394770.840    22394771.4514   22394775.2324
      3888.765        3030.206
    -35393.010 9    -26903.37948  21077385.357    21077385.8064   21077390.0374
        38.683          30.143
 94  3 17  8 36  0.0000000  0  7 19 31 27 17 28 26 16                0.000321658
    643417.037 9    491280.70747  22336480.327    22336481.3524   22336485.8764
     -1546.814       -1205.310
   -545086.889 9   -405832.47646  24380881.094    24380882.4564   24380886.2854
      2648.907        2064.083
    -60085.304 9    -45944.44849  20528229.754    20528230.1874   20528233.6594
       109.449          85.285
   -586091.498 9   -445131.24846  23586266.258    23586266.6034   23586271.4024
      1536.230        1197.062
   -242762.913 9   -181986.42146  24631801.965    24631802.4164   24631806.9304
       970.368         756.131
   -861004.735 9   -643029.67048  22379974.178    22379974.7234   22379978.4614
      3886.893        3028.748
    -36082.070 9    -27440.32248  21077254.384    21077254.7014   21077258.9574
        30.094          23.450
 94  3 17  8 36 20.0000000  0  7 19 31 27 17 28 26 16                0.000305583
    674367.662 9    515398.04547  22342370.159    22342371.0574   22342375.6214
     -1548.036       -1206.262
   -597996.733 9   -447060.93946  24370812.795    24370814.0234   24370817.9874
      2642.220        2058.873
    -62211.587 9    -47601.31049  20527825.135    20527825.5674   20527829.0784
       103.456          80.615
   -616721.206 9   -468998.56946  23580437.726    23580438.0574   23580442.8694
      1527.036        1189.898
   -262081.998 9   -197040.25846  24628125.699    24628126.1144   24628130.6494
       961.749         749.415
   -938729.596 9   -703594.50248  22365183.462    22365184.1814   22365187.8564
      3885.779        3027.880
    -36607.925 9    -27850.09348  21077154.332    21077154.6494   21077158.9254
        22.748          17.726
 94  3 17  8 36 40.0000000  0  7 19 31 27 17 28 26 16                0.000289448
    705353.811 9    539543.06147  22348266.711    22348267.5064   22348272.1464
     -1549.764       -1207.608
   -650761.511 9   -488176.35446  24360772.036    24360773.1564   24360777.2754
      2634.988        2053.237
    -64207.279 9    -49156.41049  20527445.360    20527445.8194   20527449.3394
        96.870          75.483
   -647156.908 9   -492714.69846  23574645.936    23574646.3524   23574651.1904
      1517.329        1182.334
   -281214.776 9   -211948.95146  24624484.755    24624485.2344   24624489.7914
       952.216         741.986
  -1016419.221 9   -764131.88347  22350399.662    22350400.3564   22350403.9914
      3884.009        3026.501
    -36974.495 9    -28135.74548  21077084.584    21077084.8834   21077089.1994
        14.639          11.407
 94  3 17  8 37  0.0000000  0  7 19 31 27 17 28 26 16                0.000273260
    736376.581 9    563716.61047  22354170.130    22354170.9354   22354175.6474
     -1552.021       -1209.367
   -703381.078 9   -529178.62246  24350759.139    24350760.0754   24350764.2564
      2627.364        2047.297
    -66072.692 9    -50609.99249  20527090.369    20527090.8704   20527094.3964
        90.208          70.292
   -677397.936 9   -516279.14246  23568891.233    23568891.7044   23568896.5534
      1507.318        1174.534
   -300155.072 9   -226707.65546  24620880.429    24620881.0214   24620885.5654
       942.368         734.313
  -1094076.117 9   -824643.76047  22335621.823    22335622.7204   22335626.3234
      3882.229        3025.113
    -37176.974 9    -28293.53448  21077045.971    21077046.3614   21077050.6884
         6.115           4.765
 94  3 17  8 37 20.0000000  0  8  2 19 31 27 17 28 26 16             0.000257067
   -323217.00819   -229286.05957  22824107.952    22824107.8575   22824112.4165
      4180.800        3257.766
    767433.717 9    587916.94447  22360080.021    22360080.9254   22360085.6924
     -1553.590       -1210.590
   -755856.292 9   -570068.40146  24340773.547    24340774.4284   24340778.7324
      2620.239        2041.745
    -67820.167 9    -51971.67549  20526757.820    20526758.3824   20526761.9094
        84.628          65.944
   -707454.282 9   -539699.68746  23563171.650    23563172.1724   23563177.0464
      1498.234        1167.455
   -318911.926 9   -241323.41846  24617311.292    24617311.7794   24617316.3314
       933.371         727.302
  -1171712.512 9   -885139.66147  22320847.829    22320848.9844   22320852.5474
      3881.497        3024.543
    -37221.374 9    -28328.14648  21077037.505    21077037.9334   21077042.2554
        -1.675          -1.305
 94  3 17  8 37 40.0000000  0  8  2 19 31 27 17 28 26 16             0.000240859
   -406794.213 9   -294411.15347  22808204.162    22808203.7824   22808208.2134
      4177.291        3255.032
    798532.278 9    612149.55347  22365997.761    22365998.8004   22366003.5754
     -1555.951       -1212.429
   -808172.885 9   -610834.60146  24330818.058    24330818.8654   24330823.2374
      2611.632        2035.038
    -69442.656 9    -53235.96549  20526448.991    20526449.6604   20526453.2074
        77.969          60.755
   -737310.694 9   -562964.42246  23557489.990    23557490.6714   23557495.5394
      1487.678        1159.230
   -337477.017 9   -255789.78946  24613778.384    24613779.0654   24613783.4964
       923.434         719.559
  -1249317.972 9   -945611.45447  22306080.132    22306081.1484   22306084.7034
      3879.239        3022.784
    -37092.524 9    -28227.75748  21077062.095    21077062.4494   21077066.7924
       -11.008          -8.578
 94  3 17  8 38  0.0000000  0  8  2 19 31 27 17 28 26 16             0.000224616
   -490308.688 9   -359487.36747  22792311.812    22792311.5464   22792315.8824
      4174.145        3252.581
    829672.641 9    636414.73947  22371923.572    22371924.6364   22371929.4214
     -1558.011       -1214.034
   -860322.662 9   -651470.79446  24320894.154    24320895.0584   24320899.5224
      2603.242        2028.500
    -70934.569 9    -54398.50949  20526165.141    20526165.8044   20526169.3584
        71.172          55.459
   -766961.503 9   -586068.95346  23551847.580    23551848.3224   23551853.1774
      1477.384        1151.208
   -355847.751 9   -270104.68046  24610282.469    24610283.2564   24610287.6644
       913.727         711.995
  -1326881.301 9  -1006050.41747  22291320.536    22291321.3324   22291324.8894
      3877.140        3021.148
    -36779.661 9    -27983.98648  21077121.512    21077121.9934   21077126.3384
       -20.264         -15.790
 94  3 17  8 38 20.0000000  0  8  2 19 31 27 17 28 26 16             0.000208325
   -573764.958 9   -424518.22947  22776430.406    22776430.3674   22776434.7104
      4171.570        3250.574
    860848.426 9    660707.52547  22377856.329    22377857.2224   22377862.0454
     -1559.660       -1215.319
   -912306.218 9   -691977.46846  24311001.881    24311002.8214   24311007.4684
      2594.969        2022.054
    -72290.629 9    -55455.19149  20525907.099    20525907.7894   20525911.3574
        64.304          50.107
   -796409.418 9   -609015.37846  23546243.852    23546244.4824   23546249.3804
      1467.274        1143.330
   -374028.486 9   -284271.48646  24606822.968    24606823.6424   24606828.0254
       904.310         704.657
  -1404406.518 9  -1066459.68147  22276567.768    22276568.7514   22276572.3434
      3875.373        3019.771
    -36281.875 9    -27596.11848  21077216.280    21077216.7154   21077221.0514
       -29.551         -23.027
 94  3 17  8 38 40.0000000  0  8  2 19 31 27 17 28 26 16             0.000191981
   -657166.577 9   -489506.50547  22760559.499    22760559.5564   22760563.9314
      4168.747        3248.374
    892062.140 9    685029.86647  22383796.108    22383797.0454   22383801.8974
     -1561.580       -1216.816
   -964118.019 9   -732350.30646  24301142.596    24301143.3694   24301148.1074
      2586.188        2015.211
    -73500.340 9    -56397.83649  20525676.846    20525677.5754   20525681.2124
        56.692          44.175
   -825647.646 9   -631798.40546  23540680.085    23540680.5964   23540685.5224
      1456.625        1135.032
   -392017.919 9   -298289.21446  24603399.769    24603400.3784   24603404.7804
       894.813         697.257
  -1481892.799 9  -1126838.60447  22261822.603    22261823.6224   22261827.2224
      3873.456        3018.277
    -35593.694 9    -27059.88648  21077347.256    21077347.6834   21077352.0304
       -39.201         -30.546
 94  3 17  8 39  0.0000000  0  8  2 19 31 27 17 28 26 16             0.000175571
   -740511.158 9   -554450.33147  22744699.559    22744699.5894   22744704.0274
      4165.723        3246.018
    923313.179 9    709381.28647  22389743.054    22389743.9704   22389748.8354
     -1563.618       -1218.404
  -1015752.757 9   -772585.18346  24291316.899    24291317.5854   24291322.3474
      2577.296        2008.283
    -74552.710 9    -57217.87849  20525476.467    20525477.3074   20525480.9954
        48.633          37.896
   -854669.642 9   -654412.95146  23535157.297    23535157.8904   23535162.8694
      1445.569        1126.417
   -409821.610 9   -312162.23746  24600011.753    24600012.4904   24600016.8994
       885.572         690.056
  -1559343.717 9  -1187189.96847  22247084.305    22247085.1724   22247088.8324
      3871.709        3016.916
    -34711.304 9    -26372.32648  21077515.205    21077515.6164   21077519.9534
       -49.041         -38.214
 94  3 17  8 39 20.0000000  0  8  2 19 31 27 17 28 26 16             0.000159105
   -823791.401 9   -619344.02547  22728851.839    22728851.8964   22728856.3894
      4162.304        3243.354
    954610.327 9    733768.63547  22395698.709    22395699.6624   22395704.5514
     -1566.052       -1220.300
  -1067202.144 9   -812675.61846  24281526.329    24281527.0574   24281531.9844
      2567.624        2000.746
    -75438.242 9    -57907.91849  20525308.018    20525308.7954   20525312.5354
        39.896          31.088
   -883465.458 9   -676851.25746  23529677.632    23529678.2514   23529683.1684
      1434.122        1117.498
   -427436.476 9   -325888.07846  24596659.820    24596660.4994   24596664.9644
       875.822         682.459
  -1636754.546 9  -1247510.09447  22232353.354    22232354.3484   22232358.0304
      3869.418        3015.131
    -33628.438 9    -25528.55448  21077721.287    21077721.6764   21077726.0214
       -59.250         -46.169
 94  3 17  8 39 40.0000000  0  8  2 19 31 27 17 28 26 16             0.000142582
   -907005.593 9   -684186.25247  22713016.612    22713016.7614   22713021.3214
      4159.271        3240.990
    985951.595 9    758190.36647  22401662.523    22401663.7474   22401668.6214
     -1567.863       -1221.711
  -1118463.424 9   -852619.48546  24271771.632    24271772.3974   24271777.3334
      2558.711        1993.801
    -76152.247 9    -58464.30049  20525172.193    20525172.9224   20525176.6864
        31.635          24.651
   -912036.671 9   -699114.53746  23524241.006    23524241.3494   23524246.2834
      1423.196        1108.984
   -444857.362 9   -339462.75746  24593344.672    24593345.3614   24593349.8534
       866.365         675.090
  -1714121.015 9  -1307795.65747  22217630.723    22217631.9934   22217635.6934
      3867.410        3013.566
    -32344.759 9    -24528.30248  21077965.539    21077965.9974   21077970.3354
       -68.957         -53.733
 94  3 17  8 40  0.0000000  0  8  2 19 31 27 17 28 26 16             0.000125998
   -990154.699 9   -748977.76047  22697193.633    22697194.0184   22697198.6604
      4155.914        3238.375
   1017333.542 9    782643.79447  22407634.323    22407635.6184   22407640.4794
     -1570.042       -1223.409
  -1169545.680 9   -892423.85546  24262051.005    24262051.7844   24262056.7814
      2549.923        1986.953
    -76697.212 9    -58888.96149  20525068.475    20525069.2024   20525072.9854
        23.219          18.093
   -940388.610 9   -721206.97246  23518845.820    23518846.1574   23518851.0474
      1412.418        1100.585
   -462088.334 9   -352889.49846  24590065.457    24590066.3214   24590070.8994
       857.064         667.842
  -1791445.343 9  -1368048.38347  22202916.367    22202917.6314   22202921.3474
      3865.505        3012.082
    -30867.846 9    -23377.47948  21078246.613    21078247.1004   21078251.4314
       -78.265         -60.986
 94  3 17  8 40 20.0000000  0  8  2 19 31 27 17 28 26 16             0.000109356
  -1073231.268 9   -813712.74847  22681384.619    22681385.0704   22681389.7554
      4152.142        3235.435
   1048763.537 9    807134.66047  22413615.458    22413616.6124   22413621.4614
     -1572.717       -1225.494
  -1220449.227 9   -932088.96346  24252364.395    24252365.1544   24252370.1624
      2540.770        1979.821
    -77073.095 9    -59181.87249  20524996.950    20524997.6574   20525001.4774
        14.852          11.573
   -968523.704 9   -743130.42046  23513492.022    23513492.2744   23513497.1114
      1401.529        1092.101
   -479131.504 9   -366169.92846  24586822.212    24586823.1274   24586827.6834
       847.715         660.557
  -1868732.529 9  -1428272.16947  22188209.286    22188210.3934   22188214.0964
      3863.525        3010.539
    -29209.090 9    -22084.95948  21078562.226    21078562.8074   21078567.1034
       -87.220         -67.964
 94  3 17  8 40 40.0000000  0  8  2 19 31 27 17 28 26 16             0.000092662
  -1156232.051 9   -878388.68647  22665589.986    22665590.5764   22665595.2704
      4148.160        3232.332
   1080250.043 9    831669.55947  22419607.374    22419608.3324   22419613.1774
     -1575.659       -1227.786
  -1271175.255 9   -971615.73846  24242711.510    24242712.2654   24242717.3364
      2532.101        1973.066
    -77287.365 9    -59348.85349  20524956.232    20524956.8824   20524960.7244
         6.893           5.371
   -996441.842 9   -764884.82346  23508179.302    23508179.7254   23508184.5744
      1390.630        1083.608
   -495987.043 9   -379304.13047  24583614.802    24583615.6894   24583620.1904
       838.193         653.137
  -1945977.374 9  -1488462.96248  22173510.315    22173511.2144   22173514.9334
      3861.172        3008.705
    -27373.244 9    -20654.44848  21078911.647    21078912.1924   21078916.5074
       -95.962         -74.776
 94  3 17  8 41  0.0000000  0  8  2 19 31 27 17 28 26 16             0.000075918
  -1239156.319 9   -943004.99747  22649810.222    22649810.6294   22649815.4114
      4143.929        3229.035
   1111785.930 9    856242.93647  22425608.572    22425609.4614   22425614.2964
     -1578.267       -1229.818
  -1321740.880 9  -1011017.52846  24233089.232    24233089.9904   24233095.0744
      2524.161        1966.879
    -77353.697 9    -59400.55649  20524943.557    20524944.2844   20524948.1314
        -0.572          -0.446
  -1024152.223 9   -786477.32846  23502906.158    23502906.6314   23502911.4614
      1380.060        1075.371
   -512660.910 9   -392296.75147  24580441.947    24580442.8704   24580447.2894
       828.769         645.794
  -2023181.751 9  -1548622.21848  22158818.996    22158819.7564   22158823.5164
      3859.000        3007.013
    -25372.404 9    -19095.37348  21079292.526    21079292.9884   21079297.3054
      -104.477         -81.411
 94  3 17  8 41 20.0000000  0  8  2 19 31 27 17 28 26 16             0.000059130
  -1322000.611 9  -1007558.99047  22634045.605    22634045.8974   22634050.7164
      4140.041        3226.006
   1143371.565 9    880855.08047  22431618.971    22431620.0624   22431624.8374
     -1580.733       -1231.740
  -1372152.215 9  -1050299.10046  24223496.368    24223497.0214   24223502.1604
      2516.424        1960.850
    -77281.110 9    -59344.00849  20524957.377    20524958.1304   20524961.9644
        -7.170          -5.587
  -1051657.186 9   -807909.77246  23497671.985    23497672.5884   23497677.4524
      1370.014        1067.543
   -529147.456 9   -405143.45247  24577304.553    24577305.5534   24577309.9064
       819.371         638.471
  -2100347.439 9  -1608751.33248  22144134.944    22144135.6664   22144139.4064
      3857.089        3005.524
    -23206.502 9    -17407.67648  21079704.567    21079705.1914   21079709.4634
      -112.580         -87.725
 94  3 17  8 41 40.0000000  0  8  2 19 31 27 17 28 26 16             0.000042305
  -1404755.968 9  -1072043.68047  22618297.840    22618298.0954   22618302.9614
      4134.989        3222.069
   1175014.867 9    905512.16447  22437640.529    22437641.6224   22437646.3404
     -1584.133       -1234.389
  -1422397.839 9  -1089451.55246  24213934.888    24213935.5524   24213940.8134
      2507.558        1953.941
    -77065.872 9    -59176.30649  20524998.327    20524999.1104   20525002.9384
       -14.860         -11.579
  -1078951.994 9   -829178.45646  23492478.181    23492478.5764   23492483.4114
      1358.808        1058.811
   -545435.260 9   -417835.26847  24574205.053    24574206.0524   24574210.4174
       808.944         630.346
  -2177463.820 9  -1668842.02348  22129460.031    22129460.9204   22129464.6554
      3853.973        3003.096
    -20867.788 9    -15585.32048  21080149.518    21080150.2624   21080154.5084
      -121.831         -94.933
 94  3 17  8 42  0.0000000  0  8  2 19 31 27 17 28 26 16             0.000025446
  -1487420.452 9  -1136457.55647  22602567.319    22602567.5774   22602572.5134
      4130.605        3218.653
   1206713.704 9    930212.51847  22443672.648    22443673.7364   22443678.4674
     -1586.669       -1236.365
  -1472478.452 9  -1128475.39946  24204404.859    24204405.4334   24204410.9094
      2499.543        1947.696
    -76712.091 9    -58900.64949  20525065.655    20525066.4374   20525070.3014
       -21.415         -16.687
  -1106033.865 9   -850281.21646  23487324.976    23487325.1144   23487329.9044
      1348.513        1050.789
   -561529.007 9   -430375.89847  24571142.523    24571143.5434   24571147.8224
       799.569         623.041
  -2254529.470 9  -1728893.18448  22114794.723    22114795.8554   22114799.5734
      3851.728        3001.346
    -18356.703 9    -13628.65148  21080627.376    21080628.0984   21080632.3654
      -130.136        -101.405
 94  3 17  8 42 20.0000000  0  8  2 19 31 27 17 28 26 16             0.000008563
  -1569982.755 9  -1200791.81547  22586856.232    22586856.4874   22586861.4714
      4125.386        3214.586
   1238474.457 9    954961.11747  22449716.616    22449717.5974   22449722.3474
     -1589.619       -1238.664
  -1522378.522 9  -1167358.57346  24194909.048    24194909.7664   24194915.2444
      2490.173        1940.395
    -76215.768 9    -58513.92349  20525160.097    20525160.9024   20525164.7884
       -28.434         -22.156
  -1132896.173 9   -871212.86846  23482213.126    23482213.3814   23482218.2154
      1337.447        1042.166
   -577424.588 9   -442762.11847  24568117.783    24568118.7514   24568123.0304
       789.658         615.318
  -2331537.572 9  -1788899.50048  22100140.731    22100141.6924   22100145.4144
      3848.777        2999.047
    -15666.307 9    -11532.25748  21081139.402    21081140.0734   21081144.3384
      -139.250        -108.506
 94  3 17  8 42 40.0000000  0  8  2 19 31 27 17 28 26 16            -0.000008345
  -1652447.031 9  -1265049.68847  22571163.747    22571164.0334   22571169.0434
      4120.989        3211.160
   1270286.148 9    979749.40547  22455770.102    22455771.1714   22455775.9634
     -1591.467       -1240.104
  -1572096.580 9  -1206099.92146  24185448.185    24185448.7674   24185454.2154
      2481.593        1933.709
    -75583.474 9    -58021.24749  20525280.442    20525281.2344   20525285.1574
       -34.855         -27.160
  -1159539.955 9   -891974.25446  23477142.930    23477143.2944   23477148.1104
      1326.800        1033.870
   -593124.508 9   -454995.82447  24565130.172    24565131.2094   24565135.4494
       780.295         608.022
  -2408489.833 9  -1848862.30248  22085497.091    22085498.1144   22085501.8574
      3846.384        2997.182
    -12790.683 9     -9291.52848  21081686.771    21081687.3074   21081691.5544
      -148.366        -115.610
 94  3 17  8 43  0.0000000  0  8  2 19 31 27 17 28 26 16            -0.000025281
  -1734814.489 9  -1329232.11947  22555489.597    22555490.0184   22555495.0464
      4116.029        3207.295
   1302135.495 9   1004567.04647  22461830.813    22461831.9184   22461836.7274
     -1593.252       -1241.495
  -1621634.455 9  -1244700.84646  24176021.489    24176022.0364   24176027.4654
      2472.377        1926.528
    -74814.009 9    -57421.68549  20525426.881    20525427.6734   20525431.6114
       -41.921         -32.666
  -1185962.337 9   -912563.13446  23472115.060    23472115.3794   23472120.1384
      1315.655        1025.186
   -608630.722 9   -467078.57346  24562179.478    24562180.4504   24562184.6854
       770.669         600.521
  -2485390.765 9  -1908785.10948  22070863.407    22070864.3654   22070868.0664
      3844.023        2995.343
     -9723.603 9     -6901.61348  21082270.351    21082270.9764   21082275.2254
      -158.131        -123.219
 94  3 17  8 43 19.9990000  0  8  2 19 31 27 17 28 26 16            -0.000042253
  -1817090.536 9  -1393343.31747  22539832.846    22539833.3884   22539838.4404
      4111.888        3204.069
   1334011.977 9   1029405.82647  22467896.635    22467897.8524   22467902.6804
     -1594.743       -1242.657
  -1670988.873 9  -1283158.82846  24166629.637    24166630.1154   24166635.7194
      2463.082        1919.285
    -73909.587 9    -56716.95949  20525599.073    20525599.8134   20525603.7574
       -48.694         -37.943
  -1212167.742 9   -932982.94346  23467128.242    23467128.5954   23467133.3804
      1304.823        1016.745
   -623953.537 9   -479018.45946  24559263.754    24559264.7094   24559268.8914
       761.510         593.384
  -2562249.908 9  -1968675.35348  22056237.692    22056238.5794   22056242.2494
      3842.017        2993.779
     -6469.716 9     -4366.13648  21082889.632    21082890.1834   21082894.4074
      -167.418        -130.456
 94  3 17  8 43 39.9990000  0  8  2 19 31 27 17 28 26 16            -0.000059260
  -1899280.965 9  -1457387.80248  22524192.604    22524193.0784   22524198.1464
      4107.123        3200.356
   1365928.014 9   1054275.42747  22473970.143    22473971.2794   22473976.1494
     -1596.871       -1244.315
  -1720149.165 9  -1321465.55346  24157274.973    24157275.2544   24157280.8634
      2452.974        1911.408
    -72858.928 9    -55898.28549  20525799.031    20525799.7634   20525803.7314
       -56.412         -43.957
  -1238150.731 9   -953229.42946  23462183.859    23462184.2104   23462188.9254
      1293.388        1007.835
   -639085.896 9   -490809.93046  24556384.087    24556385.1774   24556389.3384
       751.681         585.725
  -2639059.310 9  -2028526.83748  22041621.272    22041622.2444   22041625.9124
      3838.847        2991.309
     -3024.957 9     -1681.92848  21083545.200    21083545.7174   21083549.8954
      -177.040        -137.953
 94  3 17  8 43 59.9990000  0  8  2 19 31 27 17 28 26 16            -0.000076308
  -1981386.066 9  -1521365.80248  22508568.594    22508568.9944   22508574.0984
      4103.172        3197.277
   1397876.864 9   1079170.59647  22480049.926    22480050.9614   22480055.8524
     -1598.317       -1245.442
  -1769118.262 9  -1359623.27146  24147956.207    24147956.7414   24147962.3224
      2443.722        1904.199
    -71663.776 9    -54967.02249  20526026.516    20526027.1904   20526031.1694
       -63.375         -49.383
  -1263912.113 9   -973303.23846  23457281.561    23457282.0394   23457286.5974
      1282.538         999.380
   -654031.031 9   -502455.49546  24553540.198    24553541.1964   24553545.3584
       742.618         578.663
  -2715812.661 9  -2088334.64848  22027015.447    22027016.6034   22027020.2244
      3836.303        2989.327
       602.871 9      1144.92848  21084235.657    21084236.0704   21084240.2184
      -185.967        -144.909
 94  3 17  8 44 19.9990000  0  8  2 19 31 27 17 28 26 16            -0.000093404
  -2063417.534 9  -1585286.42048  22492958.516    22492958.9134   22492964.0434
      4099.762        3194.620
   1429854.671 9   1104088.33147  22486135.176    22486136.2064   22486141.1154
     -1599.678       -1246.502
  -1817903.046 9  -1397637.36646  24138672.856    24138673.3834   24138678.8804
      2434.689        1897.160
    -70328.159 9    -53926.30549  20526280.620    20526281.3724   20526285.3364
       -70.425         -54.877
  -1289459.133 9   -993210.00746  23452420.161    23452420.5934   23452425.1494
      1271.913         991.101
   -668795.730 9   -513960.48346  24550730.536    24550731.5244   24550735.6774
       733.573         571.615
  -2792519.253 9  -2148106.02448  22012418.893    22012419.8584   22012423.4184
      3834.136        2987.638
      4405.304 9      4107.83948  21084959.186    21084959.6614   21084963.7914
      -194.527        -151.579
 94  3 17  8 44 39.9990000  0  8  2 19 31 27 17 28 26 16            -0.000110558
  -2145384.914 9  -1649157.10648  22477360.727    22477361.0704   22477366.1784
      4096.730        3192.257
   1461857.333 9   1129025.43747  22492225.055    22492226.1184   22492231.0444
     -1600.852       -1247.417
  -1866517.918 9  -1435519.08046  24129421.852    24129422.3744   24129427.7684
      2426.531        1890.803
    -68856.277 9    -52779.40449  20526560.765    20526561.5114   20526565.4104
       -77.054         -60.042
  -1314796.865 9  -1012953.70946  23447598.462    23447598.9864   23447603.5844
      1261.636         983.093
   -683381.472 9   -525326.04446  24547955.134    24547956.0184   24547960.1014
       724.702         564.703
  -2869185.231 9  -2207845.75248  21997829.948    21997830.8374   21997834.3474
      3832.198        2986.128
      8375.568 9      7201.53548  21085714.801    21085715.1824   21085719.3114
      -202.769        -158.002
 94  3 17  8 44 59.9990000  0  8  2 19 31 27 17 28 26 16            -0.000127771
  -2227284.907 9  -1712975.27448  22461775.890    22461776.0534   22461781.1574
      4093.672        3189.874
   1493891.972 9   1153987.45447  22498321.282    22498322.1464   22498327.1064
     -1602.207       -1248.473
  -1914967.284 9  -1473271.82246  24120202.091    24120202.8264   24120208.1774
      2418.775        1884.760
    -67244.117 9    -51523.19349  20526867.688    20526868.3474   20526872.1874
       -83.738         -65.250
  -1339926.559 9  -1032535.31046  23442816.487    23442816.9274   23442821.5504
      1251.813         975.439
   -697781.618 9   -536546.96146  24545214.872    24545215.7924   24545219.7704
       715.752         557.729
  -2945806.876 9  -2267550.93348  21983249.282    21983250.2404   21983253.7334
      3830.448        2984.765
     12514.758 9     10426.85248  21086502.426    21086502.8164   21086507.0124
      -210.566        -164.077
 94  3 17  8 45 19.9990000  0  8  2 19 31 27 17 28 26 16            -0.000145051
  -2309125.839 9  -1776747.42348  22446202.166    22446202.2564   22446207.3564
      4090.130        3187.114
   1525954.859 9   1178971.48747  22504422.682    22504423.5154   22504428.5374
     -1604.396       -1250.179
  -1963263.239 9  -1510905.00546  24111011.652    24111012.4274   24111017.7414
      2410.497        1878.309
    -65500.391 9    -50164.46749  20527199.500    20527200.2264   20527204.0314
       -90.876         -70.812
  -1364864.991 9  -1051967.86346  23438070.657    23438071.3084   23438075.8824
      1241.721         967.575
   -712002.843 9   -547628.48846  24542508.552    24542509.5984   24542513.6134
       706.000         550.130
  -3022393.703 9  -2327228.98448  21968675.412    21968676.3054   21968679.7694
      3827.889        2982.771
     16803.070 9     13768.37248  21087318.210    21087318.8414   21087323.0584
      -218.587        -170.328
 94  3 17  8 45 39.9990000  0  8  2 19 31 27 17 28 26 16            -0.000162380
  -2390884.223 9  -1840455.24948  22430644.008    22430644.1704   22430649.2154
      4085.597        3183.582
   1558069.613 9   1203995.93747  22510533.892    22510534.7734   22510539.8064
     -1607.121       -1252.302
  -2011384.985 9  -1548402.45146  24101854.428    24101855.1344   24101860.5004
      2401.709        1871.462
    -63607.461 9    -48689.47849  20527559.726    20527560.4814   20527564.2624
       -98.441         -76.707
  -1389589.992 9  -1071234.11746  23433365.566    23433366.2934   23433370.9204
      1230.796         959.062
   -726015.809 9   -558547.72846  24539841.988    24539843.0434   24539847.0314
       695.320         541.808
  -3098919.149 9  -2386859.20648  21954113.198    21954114.0434   21954117.5184
      3824.729        2980.308
     21263.131 9     17243.72848  21088166.664    21088167.5544   21088171.7884
      -227.510        -177.281
 94  3 17  8 45 59.9990000  0  8  2 19 31 27 17 28 26 16            -0.000179751
  -2472549.686 9  -1904090.66948  22415103.510    22415103.7644   22415108.7854
      4081.189        3180.147
   1590237.763 9   1229061.98547  22516655.125    22516656.2134   22516661.2754
     -1609.392       -1254.072
  -2059327.856 9  -1585760.52246  24092731.302    24092731.9694   24092737.2224
      2392.945        1864.632
    -61563.910 9    -47097.12249  20527948.797    20527949.3854   20527953.1454
      -105.603         -82.288
  -1414097.074 9  -1090330.54646  23428701.792    23428702.6914   23428707.3534
      1220.222         950.822
   -739817.542 9   -569302.33446  24537215.605    24537216.7434   24537220.6884
       685.173         533.901
  -3175386.379 9  -2446444.06648  21939561.858    21939562.8514   21939566.3234
      3822.338        2978.445
     25904.957 9     20860.71548  21089050.172    21089050.8574   21089055.1164
      -236.400        -184.208
 94  3 17  8 46 19.9990000  0  8  2 19 31 27 17 28 26 16            -0.000197166
  -2554127.424 9  -1967657.73148  22399579.781    22399580.0334   22399585.0394
      4076.393        3176.410
   1622451.814 9   1254163.81047  22522785.248    22522786.4004   22522791.3784
     -1612.070       -1256.158
  -2107098.857 9  -1622984.64746  24083640.821    24083641.5124   24083646.7834
      2383.916        1857.597
    -59378.841 9    -45394.49349  20528364.525    20528365.2184   20528368.9654
      -113.104         -88.133
  -1438393.260 9  -1109262.64446  23424078.450    23424079.2734   23424083.8864
      1209.220         942.249
   -753419.814 9   -579901.52846  24534627.180    24534628.3304   24534632.2614
       674.836         525.846
  -3251809.527 9  -2505994.57748  21925019.222    21925020.0574   21925023.4924
      3819.734        2976.416
     30725.700 9     24617.11948  21089967.477    21089968.2384   21089972.5064
      -245.838        -191.562
 94  3 17  8 46 39.9990000  0  8  2 19 31 27 17 28 26 16            -0.000214619
  -2635610.639 9  -2031151.13748  22384074.080    22384074.3044   22384079.2964
      4071.460        3172.566
   1654711.566 9   1279301.24147  22528924.066    22528925.2564   22528930.2264
     -1614.319       -1257.911
  -2154693.834 9  -1660071.62046  24074583.770    24074584.4584   24074589.6774
      2375.072        1850.705
    -57050.903 9    -43580.53549  20528807.453    20528808.2274   20528811.9474
      -120.117         -93.598
  -1462473.409 9  -1128026.42046  23419496.226    23419496.8894   23419501.5804
      1198.388         933.809
   -766820.248 9   -590343.40546  24532077.170    24532078.3154   24532082.2764
       664.823         518.044
  -3328182.737 9  -2565506.17148  21910485.892    21910486.7684   21910490.2084
      3817.157        2974.408
     35729.048 9     28515.81448  21090919.625    21090920.3574   21090924.6154
      -254.967        -198.675
 94  3 17  8 46 59.9990000  0  8  2 19 31 27 17 28 26 16            -0.000232109
  -2716990.405 9  -2094563.93248  22368587.797    22368588.2534   22368593.2274
      4066.667        3168.831
   1687019.048 9   1304475.86747  22535071.980    22535073.2284   22535078.1714
     -1616.255       -1259.419
  -2202101.896 9  -1697012.96146  24065562.317    24065563.0224   24065568.2094
      2365.710        1843.410
    -54574.639 9    -41650.99748  20529278.694    20529279.4424   20529283.1484
      -127.439         -99.303
  -1486331.823 9  -1146617.40446  23414956.014    23414956.7754   23414961.4194
      1187.534         925.351
   -780015.081 9   -600625.04946  24529566.252    24529567.4484   24529571.4364
       654.896         510.309
  -3404498.541 9  -2624973.03248  21895963.136    21895964.3664   21895967.8314
      3814.509        2972.345
     40922.048 9     32562.28948  21091907.705    21091908.5584   21091912.8244
      -264.159        -205.838
 94  3 17  8 47 19.9990000  0  8  2 19 31 27 17 28 26 16            -0.000249638
  -2798274.360 9  -2157902.07648  22353119.713    22353120.4504   22353125.3974
      4061.565        3164.856
   1719362.883 9   1329678.81647  22541226.852    22541228.0834   22541232.9824
     -1618.270       -1260.990
  -2249321.693 9  -1733807.57346  24056576.702    24056577.4214   24056582.6144
      2355.985        1835.832
    -51951.974 9    -39607.38548  20529777.623    20529778.4774   20529782.2084
      -134.970        -105.171
  -1509969.887 9  -1165036.67246  23410457.929    23410458.6304   23410463.2154
      1175.994         916.359
   -793015.123 9   -610754.93946  24527092.483    24527093.5614   24527097.6214
       645.075         502.656
  -3480762.502 9  -2684399.49848  21881450.727    21881451.8024   21881455.2774
      3811.691        2970.149
     46294.813 9     36748.84048  21092930.235    21092930.9664   21092935.2704
      -273.462        -213.087
 94  3 17  8 47 39.9990000  0  8  2 19 31 27 17 28 26 16            -0.000267208
  -2879467.886 9  -2221169.75148  22337669.220    22337669.8374   22337674.7594
      4057.766        3161.896
   1751736.236 9   1354904.76847  22547387.410    22547388.5784   22547393.4364
     -1619.058       -1261.604
  -2296351.283 9  -1770453.98246  24047627.073    24047627.8814   24047633.1824
      2347.035        1828.858
    -49190.910 9    -37455.92948  20530302.916    20530303.8594   20530307.6164
      -141.204        -110.029
  -1533384.965 9  -1183282.18946  23406002.092    23406002.8044   23406007.4924
      1165.470         908.158
   -805832.801 9   -620742.71646  24524653.364    24524654.4274   24524658.5774
       636.693         496.124
  -3556979.658 9  -2743789.48948  21866947.217    21866948.1354   21866951.6184
      3810.030        2968.854
     51849.286 9     41076.98448  21093987.259    21093987.9824   21093992.2834
      -281.996        -219.737
 94  3 17  8 47 59.9990000  0  8  2 19 31 27 17 28 26 16            -0.000284820
  -2960571.842 9  -2284367.63148  22322235.943    22322236.2824   22322241.1794
      4051.978        3157.385
   1784138.725 9   1380153.42647  22553553.380    22553554.5704   22553559.4094
     -1621.947       -1263.855
  -2343191.955 9  -1806953.19746  24038713.603    24038714.3714   24038719.7234
      2336.282        1820.479
    -46291.156 9    -35196.40248  20530854.738    20530855.6854   20530859.4414
      -149.506        -116.498
  -1556577.621 9  -1201354.39246  23401588.771    23401589.3544   23401594.0784
      1153.093         898.514
   -818475.047 9   -630593.81446  24522247.589    24522248.6324   24522252.7084
       626.727         488.359
  -3633150.374 9  -2803143.29248  21852452.415    21852453.2604   21852456.7794
      3806.196        2965.867
     57583.929 9     45545.52048  21095078.582    21095079.2734   21095083.5714
      -292.223        -227.706
 94  3 17  8 48 19.9990000  0  8  2 19 31 27 17 28 26 16            -0.000302472
  -3041576.706 9  -2347488.29948  22306821.419    22306821.5944   22306826.4824
      4048.872        3154.965
   1816583.227 9   1405434.81147  22559727.528    22559728.5734   22559733.4424
     -1622.135       -1264.001
  -2389834.953 9  -1843298.38146  24029837.808    24029838.5434   24029843.8324
      2328.544        1814.450
    -43240.079 9    -32818.96348  20531435.386    20531436.3054   20531440.0624
      -155.256        -120.979
  -1579536.441 9  -1219244.40146  23397219.693    23397220.4384   23397225.1764
      1143.190         890.797
   -830932.473 9   -640300.89546  24519876.825    24519877.9534   24519881.9344
       619.319         482.586
  -3709256.206 9  -2862446.54148  21837969.808    21837970.7894   21837974.2964
      3804.663        2964.672
     63507.240 9     50161.06848  21096205.894    21096206.4414   21096210.7444
      -299.745        -233.568
 94  3 17  8 48 39.9990000  0  8  2 19 31 27 17 28 26 16            -0.000320176
  -3122497.899 9  -2410543.76648  22291422.721    22291422.8264   22291427.6964
      4043.270        3150.600
   1849050.660 9   1430734.06947  22565905.878    22565906.9654   22565911.8244
     -1624.561       -1265.892
  -2436302.850 9  -1879507.12946  24020995.281    24020996.0804   24021001.2994
      2318.401        1806.546
    -40053.540 9    -30335.96648  20532041.772    20532042.7074   20532046.4744
      -163.284        -127.234
  -1602278.769 9  -1236965.70246  23392892.017    23392892.8074   23392897.5024
      1131.218         881.469
   -843218.221 9   -649874.22146  24517539.060    24517540.0014   24517543.9734
       609.313         474.789
  -3785308.286 9  -2921707.90548  21823497.346    21823498.5514   21823502.0454
      3800.658        2961.552
     69600.454 9     54909.00548  21097365.333    21097365.9474   21097370.2574
      -309.468        -241.144
 94  3 17  8 48 59.9990000  0  8  2 19 31 27 17 28 26 16            -0.000337926
  -3203324.711 9  -2473525.69348  22276041.739    22276041.9844   22276046.8604
      4039.308        3147.513
   1881544.721 9   1456054.08247  22572089.139    22572090.4364   22572095.2614
     -1624.953       -1266.197
  -2482590.068 9  -1915575.07646  24012187.173    24012187.9174   24012193.0954
      2310.145        1800.113
    -36729.009 9    -27745.44648  20532674.419    20532675.3504   20532679.1494
      -169.331        -131.946
  -1624806.247 9  -1254519.58346  23388605.267    23388606.0134   23388610.7374
      1121.386         873.807
   -855324.053 9   -659307.33846  24515235.494    24515236.2634   24515240.2494
       601.113         468.400
  -3861302.460 9  -2980924.14648  21809036.200    21809037.3664   21809040.8444
      3798.651        2959.988
     75868.142 9     59792.90048  21098558.109    21098558.6734   21098562.9684
      -317.444        -247.359
 94  3 17  8 49 19.9990000  0  8  2 19 31 27 17 28 26 16            -0.000355723
  -3284055.808 9  -2536433.03448  22260679.044    22260679.3714   22260684.2424
      4033.618        3143.079
   1914061.116 9   1481391.49047  22578276.961    22578278.1744   22578282.9894
     -1626.818       -1267.650
  -2528700.760 9  -1951505.48746  24003412.642    24003413.3864   24003418.4744
      2300.807        1792.837
    -33270.457 9    -25050.49048  20533332.697    20533333.5384   20533337.3494
      -176.547        -137.569
  -1647121.461 9  -1271908.07646  23384358.913    23384359.5584   23384364.3054
      1110.093         865.008
   -867252.289 9   -668602.06646  24512965.532    24512966.4654   24512970.3174
       591.595         460.983
  -3937242.639 9  -3040098.31348  21794585.135    21794586.4634   21794589.9314
      3795.305        2957.381
     82310.804 9     64813.14148  21099784.032    21099784.7114   21099788.9444
      -326.960        -254.774
 94  3 17  8 49 39.9990000  0  8  2 19 31 27 17 28 26 16            -0.000373555
  -3364680.294 9  -2599257.30848  22245336.714    22245337.0594   22245341.8954
      4028.740        3139.278
   1946606.162 9   1506751.23047  22584470.283    22584471.3284   22584476.1404
     -1627.746       -1268.374
  -2574634.840 9  -1987298.27246  23994671.568    23994672.3184   23994677.4424
      2292.542        1786.396
    -29678.843 9    -22251.85348  20534016.229    20534017.0244   20534020.8594
      -182.700        -142.364
  -1669221.780 9  -1289129.11846  23380153.201    23380153.9504   23380158.7624
      1099.992         857.137
   -878996.670 9   -677753.52446  24510730.462    24510731.5854   24510735.3854
       582.727         454.073
  -4013127.231 9  -3099229.16648  21780144.835    21780146.1364   21780149.5804
      3793.061        2955.632
     88934.784 9     69974.66748  21101044.628    21101045.2474   21101049.4724
      -335.461        -261.398
 94  3 17  8 49 59.9990000  0  8  2 19 31 27 17 28 26 16            -0.000391420
  -3445186.583 9  -2661989.47448  22230016.925    22230017.2364   22230022.0684
      4022.122        3134.121
   1979190.175 9   1532141.33347  22590670.757    22590671.9124   22590676.7244
     -1630.402       -1270.443
  -2620386.888 9  -2022949.21746  23985965.087    23985965.9144   23985971.1024
      2282.750        1778.766
    -25942.005 9    -19340.05348  20534727.419    20534728.1684   20534732.0144
      -190.780        -148.660
  -1691104.076 9  -1306180.26546  23375989.043    23375989.8764   23375994.7004
      1088.468         848.157
   -890539.079 9   -686747.63546  24508533.913    24508535.1014   24508539.0694
       571.801         445.559
  -4088943.233 9  -3158306.57048  21765717.599    21765718.8304   21765722.2784
      3788.788        2952.302
     95745.091 9     75281.38448  21102340.657    21102341.2454   21102345.4604
      -345.318        -269.079
 94  3 17  8 50 19.9990000  0  8  2 19 31 27 17 28 26 16            -0.000409318
  -3525570.638 9  -2724626.39748  22214720.252    22214720.6694   22214725.5074
      4016.441        3129.694
   2011812.910 9   1557561.60947  22596878.729    22596879.8714   22596884.6914
     -1631.605       -1271.380
  -2665953.964 9  -2058456.03146  23977293.947    23977294.8374   23977299.9674
      2274.080        1772.010
    -22054.827 9    -16311.10448  20535467.107    20535467.9204   20535471.7524
      -197.784        -154.117
  -1712767.770 9  -1323061.07946  23371866.805    23371867.4474   23371872.2444
      1078.150         840.117
   -901874.691 9   -695580.55945  24506376.841    24506377.9334   24506381.9574
       561.982         437.908
  -4164686.728 9  -3217327.47648  21751304.063    21751305.3464   21751308.7824
      3785.828        2949.996
    102743.575 9     80734.73048  21103672.583    21103673.0564   21103677.2344
      -354.218        -276.014
 94  3 17  8 50 39.9990000  0  8  2 19 31 27 17 28 26 16            -0.000427244
  -3605818.916 9  -2787157.51848  22199449.526    22199449.9144   22199454.7874
      4008.509        3123.514
   2044480.160 9   1583016.57547  22603095.107    22603096.2584   22603101.1254
     -1635.035       -1274.053
  -2711321.635 9  -2093807.47146  23968660.944    23968661.7144   23968666.7874
      2262.614        1763.076
    -18004.713 9    -13155.19248  20536237.902    20536238.6144   20536242.4774
      -207.136        -161.405
  -1734202.096 9  -1339763.15746  23367787.996    23367788.6684   23367793.4434
      1065.336         830.132
   -912992.139 9   -704243.49446  24504261.090    24504262.3414   24504266.4594
       549.789         428.407
  -4240350.128 9  -3276285.97048  21736905.893    21736907.0984   21736910.5384
      3780.586        2945.911
    109937.230 9     86340.15648  21105041.539    21105041.9674   21105046.1604
      -365.027        -284.437
 94  3 17  8 50 59.9990000  0  8  2 19 31 27 17 28 26 16            -0.000445191
  -3685924.954 9  -2849577.80548  22184205.681    22184206.2154   22184211.0994
      4001.570        3118.106
   2077200.533 9   1608512.92447  22609321.517    22609322.7424   22609327.6894
     -1637.639       -1276.082
  -2756473.296 9  -2128990.59246  23960069.017    23960069.6514   23960074.7304
      2251.862        1754.698
    -13784.358 9     -9866.62648  20537040.950    20537041.7384   20537045.6164
      -215.583        -167.987
  -1755398.490 9  -1356279.82646  23363754.527    23363755.1914   23363759.9284
      1053.610         820.995
   -923881.754 9   -712728.96745  24502188.816    24502190.0634   24502194.4124
       538.671         419.744
  -4315927.803 9  -3335177.66748  21722524.244    21722525.1344   21722528.5694
      3776.574        2942.785
    117328.889 9     92099.87048  21106448.059    21106448.5524   21106452.7604
      -374.752        -292.014
 94  3 17  8 51 19.9990000  0  8  2 19 31 27 17 28 26 16            -0.000463166
  -3765898.505 9  -2911894.85248  22168987.094    22168987.7234   22168992.6264
      3995.706        3113.537
   2109974.014 9   1634050.65947  22615558.247    22615559.3614   22615564.3584
     -1639.916       -1277.857
  -2801408.240 9  -2164004.86346  23951518.072    23951518.7704   23951523.7304
      2241.611        1746.710
     -9393.327 9     -6445.06648  20537876.403    20537877.3254   20537881.2324
      -223.652        -174.274
  -1776354.273 9  -1372609.01246  23359766.737    23359767.4434   23359772.1314
      1041.972         811.926
   -934551.459 9   -721043.05745  24500158.572    24500159.6324   24500164.0484
       528.158         411.552
  -4391422.870 9  -3394004.99448  21708157.977    21708158.8734   21708162.3074
      3772.763        2939.815
    124913.143 9     98009.65948  21107891.254    21107891.8214   21107896.0154
      -383.744        -299.021
 94  3 17  8 51 39.9990000  0  8  2 19 31 27 17 28 26 16            -0.000481188
  -3845768.765 9  -2974131.41648  22153788.265    22153788.8834   22153793.8424
      3991.145        3109.983
   2142783.674 9   1659616.58747  22621801.974    22621802.9074   22621807.9454
     -1641.351       -1278.975
  -2846148.538 9  -2198867.45046  23943004.036    23943004.9534   23943009.9524
      2232.143        1739.332
     -4852.742 9     -2906.96848  20538740.390    20538741.3614   20538745.2954
      -230.704        -179.769
  -1797092.384 9  -1388768.59046  23355820.269    23355821.1174   23355825.8314
      1031.607         803.850
   -945022.162 9   -729202.06845  24498165.930    24498167.1184   24498171.6414
       518.672         404.160
  -4466851.997 9  -3452780.93948  21693804.104    21693805.2064   21693808.6414
      3769.835        2937.534
    132664.389 9    104049.57148  21109366.220    21109366.8814   21109371.0764
      -391.626        -305.163
 94  3 17  8 51 59.9990000  0  8  2 19 31 27 17 28 26 16            -0.000499259
  -3925536.720 9  -3036288.26048  22138609.065    22138609.5104   22138614.5254
      3986.135        3106.079
   2175638.913 9   1685218.02947  22628054.174    22628055.0844   22628060.2064
     -1643.688       -1280.796
  -2890683.108 9  -2233569.74246  23934529.303    23934530.3224   23934535.2784
      2221.672        1731.173
      -155.547 9       753.16248  20539634.400    20539635.2394   20539639.1854
      -238.541        -185.876
  -1817606.761 9  -1404753.81846  23351916.213    23351917.3664   23351922.1274
      1020.257         795.005
   -955290.353 9   -737203.30345  24496211.847    24496213.0854   24496217.6964
       508.691         396.382
  -4542202.659 9  -3511495.74648  21679465.231    21679466.4894   21679469.9094
      3765.691        2934.305
    140588.296 9    110224.02348  21110874.230    21110874.7584   21110879.0094
      -400.366        -311.974
 94  3 17  8 52 19.9990000  0  8  2 19 31 27 17 28 26 16            -0.000517381
  -4005213.688 9  -3098374.20548  22123446.948    22123447.4544   22123452.5134
      3981.220        3102.249
   2208528.050 9   1710845.88647  22634312.571    22634313.7084   22634318.8454
     -1645.563       -1282.257
  -2935014.709 9  -2268113.87946  23926093.282    23926094.4044   23926099.1324
      2211.169        1722.989
      4687.350 9      4526.82848  20540555.958    20540556.8284   20540560.7844
      -245.985        -191.677
  -1837899.302 9  -1420566.20046  23348054.519    23348055.8574   23348060.5634
      1008.622         785.939
   -965370.546 9   -745058.02445  24494293.632    24494294.8274   24494299.5944
       498.938         388.783
