     2              OBSERVATION DATA    GPS                 RINEX VERSION / TYPE
TBIN                XXXXXXXXXXXX        96-09-09 22:06:36   PGM / RUN BY / DATE 
TOPCON-GEOCOMP RINEX Formatter-Version: 96.06.XX            COMMENT             
MODE : STATIC                                               COMMENT             
PTA                                                         COMMENT             
PTA1                                                        MARKER NAME         
CCG                                                         OBSERVER / AGENCY   
UNKNOWN                                                     REC# / TYPE / VERS  
UNKNOWN                                                     ANT # / TYPE        
   596915.9608 -4847845.5363  4088158.1628                  APPROX POSITION XYZ 
LATN  40 07 04.59551   LONE 277 01 10.22176    231.562(m)   COMMENT             
LATN  40 07 04.59551   LONW  82 58 49.77824    231.562(m)   COMMENT             
        1.6215        0.0000        0.0000                  ANTENNA: DELTA H/E/N
Original slant height(m) :   1.6230 Radius Used:0.0699      COMMENT             
   --> NO OFFSETS WERE ADDED TO ANTENNA: DELTA H/E/N <--    COMMENT             
                                                _______     COMMENT             
                                               /       \    COMMENT             
                                              |  TSII   |   COMMENT             
                                              | ANTENNA |   COMMENT             
HEIGHT MEASURED TO THIS POINT ______________\ |_________|   COMMENT             
                                            /   |__^__|     COMMENT             
Offset of preamp to circular base of antenna(m) : 0.0206    COMMENT             
Turbo SII antenna radius(m) :       0.0699                  COMMENT             
TurboRogue Choke ring radius(m) :   0.1896                  COMMENT             
Turbo SII antenna offsets(m) :      L1:  0.0530 L2:  0.0510 COMMENT             
TurboRogue Choke ring offsets(m) :  L1: -0.0064 L2:  0.0198 COMMENT             
     1     1                                                WAVELENGTH FACT L1/2
     5    C1    L1    L2    P1    P2                        # / TYPES OF OBSERV 
  1996     9     9    21    34   33.000000                  TIME OF FIRST OBS   
                                                            END OF HEADER       
                            3  4                                                
PTA1                                                        MARKER NAME         
USER COMMENT: PTA                                           COMMENT             
   596915.9608 -4847845.5363  4088158.1628                  APPROX POSITION XYZ 
LATN  40 07 04.59551   LONE 277 01 10.22176    231.562(m)   COMMENT             
LATN  40 07 04.59551   LONW  82 58 49.77824    231.562(m)   COMMENT             
        1.6215        0.0000        0.0000                  ANTENNA: DELTA H/E/N
        --> THIS IS A START OF A NEW SITE <--               COMMENT             
                 --> MODE: STATIC <--                       COMMENT             
 96  9  9 21 40  0.0000000  0  5 01 09 17 21 23
  21246869.91909   -545271.62609   -424885.74805         0.00000  21246872.87405
  21964001.55109    756270.06709    589301.32103         0.00000  21964004.54603
  23351785.35704   1382308.53304   1077123.01901         0.00000  23351792.12501
  20412175.87709   -494343.33609   -385202.58706         0.00000  20412179.12506
  20833595.09509    339090.56109    264226.46004         0.00000  20833599.51804
 96  9  9 21 40 15.0000000  0  5 01 09 17 21 23
  21242659.44209   -567397.26609   -442126.50505         0.00000  21242662.83305
  21970307.74909    789410.42209    615124.99003         0.00000  21970311.03503
  23362923.35304   1440839.87204   1122731.91701         0.00000  23362928.84601
  20408401.26409   -514178.52109   -400658.57405         0.00000  20408404.34905
  20836500.04809    354356.89809    276122.30205         0.00000  20836504.35905
 96  9  9 21 40 30.0000000  0  5 01 09 21 23 17
  21238459.84809   -589464.37709   -459321.62205         0.00000  21238462.83205
  21976632.59809    822650.34509    641026.22703         0.00000  21976634.96103
  20404639.66409   -533944.35909   -416060.51005         0.00000  20404642.77105
  20839419.08709    369694.11109    288073.34505         0.00000  20839423.30305
  23374066.30204   1499397.37804   1168361.06401         0.00000  23374069.73001
 96  9  9 21 40 45.0000000  0  5 01 09 21 23 17
  21234272.79609   -611471.55309   -476470.08405         0.00000  21234276.12205
  21982976.22309    855986.90209    667002.74503         0.00000  21982979.49203
  20400892.19109   -553636.13009   -431404.75605         0.00000  20400896.12005
  20842351.04609    385100.58409    300078.39905         0.00000  20842354.65805
  23385215.43004   1557981.76304   1214011.23601         0.00000  23385221.38601
 96  9  9 21 41  0.0000000  0  5 01 09 17 21 23
  21230094.33109   -633427.22209   -493578.38305         0.00000  21230097.70305
  21989336.68709    889410.37909    693047.01103         0.00000  21989340.14803
  23396366.51904   1616585.40004   1259676.24601         0.00000  23396373.36501
  20397158.03509   -573258.58909   -446694.98305         0.00000  20397161.29805
  20845294.89709    400569.35909    312131.98404         0.00000  20845298.26804
 96  9  9 21 41 15.0000000  0  5 01 09 17 21 23
  21225929.28809   -655315.53909   -510634.19804         0.00000  21225932.51204
  21995716.73609    922938.13909    719172.51503         0.00000  21995718.52503
  23407524.91704   1675223.05104   1305367.93601         0.00000  23407533.59001
  20393439.90709   -592795.43009   -461918.49005         0.00000  20393443.52905
  20848253.36109    416118.11909    324247.87905         0.00000  20848256.55705
 96  9  9 21 41 30.0000000  0  5 01 09 21 23 17
  21221778.03609   -677131.86609   -527633.94404         0.00000  21221781.21204
  22002118.20909    956575.50309    745383.42403         0.00000  22002119.63403
  20389739.88409   -612241.90209   -477071.58605         0.00000  20389743.05305
  20851228.18109    431752.09309    336430.19505         0.00000  20851231.55605
  23418690.88204   1733899.23404   1351089.57801         0.00000  23418693.70501
 96  9  9 21 41 45.0000000  0  5 01 09 21 23 17
  21217638.23609   -698883.28309   -544583.08604         0.00000  21217641.84004
  22008539.26109    990316.30909    771675.00603         0.00000  22008541.45903
  20386054.40409   -631607.50109   -492161.67905         0.00000  20386057.70105
  20854218.35609    447465.17309    348674.15105         0.00000  20854222.50305
  23429862.22504   1792608.62404   1396837.12701         0.00000  23429866.63301
 96  9  9 21 42  0.0000000  0  5 01 09 17 21 23
  21213510.75209   -720572.86609   -561484.04604         0.00000  21213514.51004
  22014978.98909   1024156.87109    798044.23803         0.00000  22014981.52103
  23441040.20005   1851346.32605   1442606.73902         0.00000  23441043.09302
  20382383.78909   -650897.30109   -507192.68406         0.00000  20382386.98106
  20857222.74809    463253.52009    360976.76505         0.00000  20857227.18605
 96  9  9 21 42 15.0000000  0  5 01 09 17 21 23
  21209394.93309   -742204.17609   -578339.60004         0.00000  21209398.41304
  22021437.32009   1058095.51809    824489.91903         0.00000  22021439.65503
  23452223.43805   1910109.45305   1488396.07901         0.00000  23452227.55601
  20378726.78309   -670116.07509   -522168.35305         0.00000  20378730.24405
  20860240.99609    479112.36709    373334.29104         0.00000  20860244.55704
 96  9  9 21 42 30.0000000  0  5 01 09 21 23 17
  21205290.52009   -763776.41909   -595149.14404         0.00000  21205293.83004
  22027913.70309   1092131.68209    851011.59803         0.00000  22027916.42403
  20375083.23109   -689261.38309   -537086.76806         0.00000  20375086.43406
  20863272.80509    495044.34509    385748.81405         0.00000  20863276.56905
  23463408.55604   1968898.21104   1534205.41001         0.00000  23463414.07101
 96  9  9 21 42 45.0000000  0  5 01 09 21 23 17
  21201196.01809   -785290.68209   -611913.49505         0.00000  21201199.32405
  22034409.39809   1126267.12309    877610.63503         0.00000  22034411.85703
  20371455.10909   -708328.42709   -551944.20806         0.00000  20371458.95406
  20866319.74709    511057.23109    398226.36104         0.00000  20866323.38804
  23474600.44705   2027711.04705   1580033.68301         0.00000  23474605.70501
 96  9  9 21 43  0.0000000  0  5 01 09 17 21 23
  21197166.74609   -806461.46309   -628410.21805         0.00000  21197170.91805
  22040978.50509   1160788.58909    904510.49903         0.00000  22040981.46503
  23485850.98605   2086834.03905   1626103.49001         0.00000  23485857.80601
  20367896.22209   -727030.45409   -566517.22506         0.00000  20367900.17606
  20869437.72109    527441.35909    410993.21905         0.00000  20869441.18505
 96  9  9 21 43 15.0000000  0  5 01 09 17 21 23
  21193150.54109   -827565.55609   -644854.97105         0.00000  21193154.83305
  22047567.32808   1195419.48408    931495.58503         0.00000  22047570.70803
  23497107.53304   2145988.02204   1672197.45001         0.00000  23497116.64101
  20364353.86109   -745646.81609   -581023.46705         0.00000  20364357.54405
  20872573.91409    543921.10009    423834.57505         0.00000  20872577.59305
 96  9  9 21 43 30.0000000  0  5 01 09 21 23 17
  21189143.75909   -848619.40709   -661260.54704         0.00000  21189148.36704
  22054174.71108   1230139.65708    958550.25102         0.00000  22054178.23702
  20360823.57809   -764199.74109   -595480.30206         0.00000  20360827.01206
  20875723.83609    560475.81209    436734.33105         0.00000  20875727.29105
  23508367.31205   2205153.75705   1718300.60101         0.00000  23508372.60101
 96  9  9 21 43 45.0000000  0  5 01 09 21 23 17
  21185147.27209   -869622.90809   -677626.93404         0.00000  21185150.81304
  22060799.04408   1264949.16708    985674.53603         0.00000  22060802.41703
  20357305.30409   -782689.44709   -609887.86405         0.00000  20357309.39805
  20878888.48509    577104.66309    449691.86404         0.00000  20878891.88004
  23519628.61704   2264332.91304   1764414.32501         0.00000  23519634.53301
 96  9  9 21 44  0.0000000  0  5 01 09 17 21 23
  21181153.57309   -890611.40309   -693981.59104         0.00000  21181156.63304
  22067432.64408   1299809.96908   1012838.78203         0.00000  22067436.98103
  23530884.32804   2323488.12804   1810509.14801         0.00000  23530890.29001
  20353790.68809   -801154.02009   -624275.84706         0.00000  20353794.69506
  20882059.88609    593770.58409    462678.30804         0.00000  20882063.69604
 96  9  9 21 44 15.0000000  0  5 01 09 17 21 23
  21177167.82809   -911554.76509   -710301.08304         0.00000  21177171.27304
  22074082.55308   1334753.63008   1040067.62303         0.00000  22074086.82703
  23542142.73104   2382650.00804   1856609.14001         0.00000  23542146.06401
  20350287.82809   -819561.06109   -638618.99505         0.00000  20350291.85705
  20885244.50509    610503.33209    475716.78505         0.00000  20885247.63605
 96  9  9 21 44 30.0000000  0  5 01 09 21 23 17
  21173190.42509   -932455.03309   -726587.00205         0.00000  21173194.16105
  22080747.62909   1369777.41209   1067358.86803         0.00000  22080751.89603
  20346796.61609   -837910.22409   -652917.04605         0.00000  20346800.01305
  20888441.41009    627301.05209    488805.93205         0.00000  20888443.86505
  23553401.31404   2441816.47804   1902712.94001         0.00000  23553408.61501
 96  9  9 21 44 45.0000000  0  5 01 09 21 23 17
  21169218.12309   -953329.24409   -742852.61704         0.00000  21169221.50004
  22087424.94709   1404864.76509   1094699.66503         0.00000  22087429.66003
  20343313.00009   -856213.87109   -667179.62205         0.00000  20343316.21705
  20891647.01209    644149.30809    501934.42805         0.00000  20891650.46805
  23564658.41004   2500971.18404   1948807.43301         0.00000  23564667.55601
 96  9  9 21 45  0.0000000  0  5 01 09 17 21 23
  21165247.16909   -974199.79209   -759115.38004         0.00000  21165250.23504
  22094108.99608   1439993.90908   1122073.01002         0.00000  22094112.45302
  23575908.73604   2560090.68104   1994874.72301         0.00000  23575914.86501
  20339833.71209   -874496.51509   -681425.83405         0.00000  20339838.06105
  20894857.54709    661022.71009    515082.52004         0.00000  20894861.40004
 96  9  9 21 45 15.0000000  0  6 01 09 05 21 23 17
  21161282.16909   -995038.51009   -775353.34405         0.00000  21161285.34405
  22100806.80409   1475190.73809   1149499.11103         0.00000  22100810.90703
  23960010.41203    -23622.50203    -18406.45501         0.00000  23960026.33401
  20336364.31009   -892732.00409   -695635.30205         0.00000  20336367.45805
  20898077.65709    677944.37909    528268.22605         0.00000  20898081.60905
  23587157.28704   2619202.64604   2040935.92600         0.00000  23587161.67800
 96  9  9 21 45 30.0000000  0  6 01 05 21 23 09 17
  21157323.39909  -1015839.15109   -791561.64105         0.00000  21157326.25105
  23954397.18402    -53102.20302    -41377.69801         0.00000  23954397.31501
  20332904.46109   -910915.39209   -709804.17005         0.00000  20332907.05905
  20901306.15309    694915.89609    541492.77904         0.00000  20901310.98104
  22107518.70809   1510460.78709   1176982.30803         0.00000  22107522.00603
  23598405.68904   2678313.11404   2086996.08801         0.00000  23598411.72101
 96  9  9 21 45 45.0000000  0  6 01 05 21 23 09 17
  21153368.42409  -1036624.33409   -807757.86905         0.00000  21153371.51405
  23948794.08303    -82560.34603    -64332.08101         0.00000  23948795.67001
  20329450.79609   -929064.35509   -723946.22205         0.00000  20329453.40805
  20904541.85209    711914.54509    554738.48205         0.00000  20904546.53505
  22114239.93308   1545783.03308   1204506.10803         0.00000  22114243.42503
  23609649.74604   2737401.74804   2133039.11601         0.00000  23609656.54001
 96  9  9 21 46  0.0000000  0  6 01 09 05 21 23 17
  21149412.16009  -1057407.37009   -823952.43805         0.00000  21149415.47305
  22120969.25608   1581144.42408   1232060.45103         0.00000  22120972.32703
  23943190.61403   -112011.19803    -87280.79601         0.00000  23943190.02601
  20326002.28009   -947187.95709   -738068.49205         0.00000  20326005.29205
  20907779.44109    728930.29309    567997.51104         0.00000  20907784.32804
  23620887.09003   2796454.69903   2179054.30101         0.00000  23620902.66401
 96  9  9 21 46 15.0000000  0  6 01 09 05 21 23 17
  21145475.47709  -1078098.09709   -840075.08205         0.00000  21145478.82705
  22127723.15209   1616633.75109   1259714.44103         0.00000  22127725.33603
  23937600.92102   -141362.27902   -110151.51501         0.00000  23937603.93701
  20322575.43609   -965193.51109   -752098.79405         0.00000  20322578.59405
  20911038.44909    746053.33909    581340.13105         0.00000  20911043.47205
  23632134.70203   2855560.39303   2225110.58201         0.00000  23632141.35401
 96  9  9 21 46 30.0000000  0  6 01 05 21 23 09 17
  21141558.51509  -1098684.66509   -856116.53504         0.00000  21141562.57204
  23932035.86402   -170599.27102   -132933.48901         0.00000  23932059.89001
  20319174.34609   -983065.48809   -766025.00206         0.00000  20319178.56206
  20914319.78909    763296.86009    594776.64405         0.00000  20914324.31905
  22134503.46209   1652263.04109   1287477.51503         0.00000  22134506.26503
  23643394.41603   2914731.10803   2271217.60601         0.00000  23643400.14101
 96  9  9 21 46 45.0000000  0  6 01 05 21 23 09 17
  21137658.90909  -1119174.11809   -872082.32604         0.00000  21137663.72704
  23926494.48202   -199730.62702   -155633.13001         0.00000  23926505.66101
  20315796.93609  -1000811.21109   -779852.83905         0.00000  20315800.67705
  20917622.57209    780654.60909    608302.15105         0.00000  20917626.35205
  22141309.44609   1688023.35909   1315342.70903         0.00000  22141312.23903
  23654666.56003   2973960.71103   2317370.39600         0.00000  23654677.63000
 96  9  9 21 47  0.0000000  0  6 01 09 05 21 23 17
  21133776.78909  -1139573.20309   -887977.71205         0.00000  21133781.44105
  22148138.37609   1723908.84809   1343305.43704         0.00000  22148140.63804
  23920968.20403   -228763.88503   -178256.75500         0.00000  23920971.03400
  20312443.60009  -1018438.67109   -793588.52805         0.00000  20312446.87505
  20920946.20009    798118.78209    621910.59205         0.00000  20920950.43005
  23665947.17103   3033242.48703   2363563.83501         0.00000  23665954.87901
 96  9  9 21 47 15.0000000  0  6 01 09 05 21 23 17
  21129911.76609  -1159888.48609   -903807.80204         0.00000  21129915.75404
  22154988.28509   1759908.78809   1371357.30704         0.00000  22154990.61604
  23915462.52603   -257708.86203   -200811.25800         0.00000  23915465.83000
  20309108.89509  -1035958.38809   -807240.25105         0.00000  20309112.49905
  20924287.18109    815677.81409    635592.97004         0.00000  20924291.57604
  23677236.10903   3092568.11603   2409791.75501         0.00000  23677244.69401
 96  9  9 21 47 30.0000000  0  6 01 05 21 23 09 17
  21126057.89609  -1180138.09609   -919586.70004         0.00000  21126061.63304
  23909968.84303   -286581.53103   -223309.43401         0.00000  23909971.04701
  20305792.31809  -1053386.98509   -820820.97505         0.00000  20305795.63805
  20927643.14609    833310.87909    649332.98805         0.00000  20927646.69405
  22161856.54809   1796004.52409   1399483.88003         0.00000  22161859.68003
  23688530.95304   3151917.31904   2456037.72101         0.00000  23688541.36601
 96  9  9 21 47 45.0000000  0  6 01 05 21 23 09 17
  21122213.61409  -1200342.62509   -935330.46505         0.00000  21122217.19205
  23904487.63404   -315401.58204   -245766.52101         0.00000  23904485.81701
  20302489.65409  -1070745.64409   -834347.19005         0.00000  20302493.11305
  20931008.41309    850996.79509    663114.21705         0.00000  20931011.70605
  22168739.28509   1832174.92909   1427668.60303         0.00000  22168742.65203
  23699825.29904   3211266.58704   2502284.01101         0.00000  23699832.32301
 96  9  9 21 48  0.0000000  0  6 01 09 05 21 23 17
  21118395.75309  -1220406.95309   -950964.99905         0.00000  21118398.94705
  22175655.15909   1868516.96809   1455987.04004         0.00000  22175658.07804
  23899029.84704   -344071.06604   -268106.45101         0.00000  23899033.37701
  20299217.66809  -1087937.48509   -847743.42205         0.00000  20299221.26405
  20934402.96909    868835.72409    677014.68205         0.00000  20934406.43805
  23711137.28704   3270710.32204   2548603.68001         0.00000  23711142.00801
 96  9  9 21 48 15.0000000  0  6 01 09 05 21 23 17
  21114588.58909  -1240413.95109   -966554.87005         0.00000  21114591.96605
  22182587.44409   1904945.40209   1484372.83004         0.00000  22182590.54504
  23893587.09804   -372670.75304   -290391.92501         0.00000  23893587.34601
  20295961.72809  -1105047.90209   -861076.22405         0.00000  20295964.95305
  20937811.78609    886747.99809    690972.30504         0.00000  20937815.58404
  23722451.48204   3330163.57004   2594931.00901         0.00000  23722460.90401
 96  9  9 21 48 30.0000000  0  6 01 05 21 23 09 17
  21110796.45209  -1260341.30809   -982082.67205         0.00000  21110800.09805
  23888161.73704   -401176.12804   -312603.93501         0.00000  23888171.04901
  20292725.09009  -1122054.52409   -874328.13205         0.00000  20292728.35705
  20941238.25309    904756.07709    705004.56804         0.00000  20941242.24304
  22189540.54709   1941482.70409   1512843.46203         0.00000  22189543.77703
  23733771.51604   3389650.91504   2641284.62201         0.00000  23733776.35301
 96  9  9 21 48 45.0000000  0  6 01 05 21 23 09 17
  21107022.42309  -1280174.63009   -997537.19405         0.00000  21107025.89405
  23882757.14904   -429574.98104   -334732.74701         0.00000  23882761.87201
  20289511.42109  -1138946.20909   -887490.48405         0.00000  20289514.47305
  20944685.93609    922874.04409    719122.44505         0.00000  20944690.37505
  22196515.26208   1978141.19408   1541408.49303         0.00000  22196518.13803
  23745101.15104   3449187.55404   2687676.79501         0.00000  23745104.94601
 96  9  9 21 49  0.0000000  0  6 01 09 05 21 23 17
  21103257.98409  -1299953.47009  -1012949.27104         0.00000  21103261.43004
  22203506.19908   2014878.87308   1570035.22403         0.00000  22203510.40303
  23877364.25403   -457907.71903   -356810.30201         0.00000  23877371.41701
  20286310.49009  -1155765.66809   -900596.54705         0.00000  20286313.73305
  20948146.42809    941058.98409    733292.53504         0.00000  20948150.10804
  23756431.21404   3508730.86704   2734074.14801         0.00000  23756432.73901
 96  9  9 21 49 15.0000000  0  6 01 09 05 21 23 17
  21099508.18509  -1319657.92709  -1028303.38105         0.00000  21099511.59105
  22210516.23408   2051714.92908   1598738.61803         0.00000  22210520.07003
  23871990.69504   -486152.73604   -378819.35801         0.00000  23871997.09801
  20283126.86009  -1172493.18209   -913630.97705         0.00000  20283130.52905
  20951623.14009    959331.18209    747530.59204         0.00000  20951627.58604
  23767767.54204   3568299.98404   2780491.64201         0.00000  23767774.48201
 96  9  9 21 49 30.0000000  0  6 01 05 21 23 09 17
  21095773.15609  -1339283.31309  -1043595.88905         0.00000  21095777.00505
  23866633.43603   -514302.86403   -400754.47800         0.00000  23866640.72400
  20279962.67409  -1189120.89809   -926587.62905         0.00000  20279966.32905
  20955118.14008    977700.47608    761844.32804         0.00000  20955122.80604
  22217546.41908   2088655.97308   1627523.85203         0.00000  22217550.52703
  23779109.40905   3627901.28305   2826934.13101         0.00000  23779116.11801
 96  9  9 21 49 45.0000000  0  6 01 05 21 23 09 17
  21092051.23309  -1358844.05309  -1058838.02405         0.00000  21092055.64505
  23861292.63504   -542370.86704   -422625.54401         0.00000  23861298.17301
  20276814.53109  -1205663.33109   -939477.83405         0.00000  20276818.54705
  20958630.95309    996158.35909    776227.09304         0.00000  20958635.76204
  22224592.67508   2125690.50608   1656381.95103         0.00000  22224596.47703
  23790453.84404   3687521.82004   2873391.56701         0.00000  23790457.03901
 96  9  9 21 50  0.0000000  0  6 01 09 05 21 23 17
  21088340.80209  -1378345.91409  -1074034.25405         0.00000  21088344.46805
  22231656.34407   2162814.71707   1685309.85902         0.00000  22231660.56702
  23855966.44004   -570361.67804   -444436.44501         0.00000  23855970.53901
  20273681.33309  -1222125.63009   -952305.59705         0.00000  20273685.61105
  20962159.90208   1014705.80808    790679.62904         0.00000  20962164.41904
  23801803.08505   3747160.15805   2919862.93801         0.00000  23801806.51401
 96  9  9 21 50 15.0000000  0  6 01 09 05 21 23 17
  21084643.86609  -1397772.32509  -1089171.71905         0.00000  21084647.83105
  22238741.72707   2200045.06307   1714320.50203         0.00000  22238745.41603
  23850659.52504   -598259.69404   -466175.26901         0.00000  23850662.71401
  20270567.84709  -1238491.54109   -965058.25905         0.00000  20270571.69305
  20965710.77209   1033361.53809    805216.56104         0.00000  20965715.31504
  23813159.01605   3806833.95605   2966362.00701         0.00000  23813165.51201
 96  9  9 21 50 30.0000000  0  6 01 05 21 23 09 17
  21080960.42909  -1417126.59709  -1104252.94905         0.00000  21080964.14105
  23845364.16703   -626070.17003   -487845.64701         0.00000  23845366.32501
  20267471.05009  -1254765.08009   -977738.94205         0.00000  20267474.78805
  20969280.37709   1052119.26209    819832.94304         0.00000  20969284.49304
  22245845.74607   2237379.09207   1743411.96102         0.00000  22245849.50402
  23824521.96205   3866541.52905   3012887.32601         0.00000  23824527.28201
 96  9  9 21 50 45.0000000  0  6 01 05 21 23 09 17
  21077288.68909  -1436423.94509  -1119289.85105         0.00000  21077291.97905
  23840087.29103   -653808.75803   -509460.23001         0.00000  23840087.42801
  20264389.04209  -1270961.11809   -990359.23005         0.00000  20264392.82705
  20972865.93109   1070960.44609    834514.38204         0.00000  20972870.44804
  22252967.46007   2274802.99307   1772573.41903         0.00000  22252970.96503
  23835887.47405   3926267.27905   3059426.96501         0.00000  23835890.67701
 96  9  9 21 51  0.0000000  0  6 01 09 05 21 23 17
  21073630.90909  -1455646.50609  -1134268.46305         0.00000  21073634.46005
  22260110.33207   2312336.36407   1801820.21802         0.00000  22260112.14102
  23834825.86103   -681458.97103   -531005.84101         0.00000  23834831.68101
  20261325.29309  -1287062.84909  -1002906.02305         0.00000  20261328.88905
  20976471.07609   1089902.42809    849274.35004         0.00000  20976474.31104
  23847257.63104   3986025.51604   3105991.78101         0.00000  23847259.56201
 96  9  9 21 51 15.0000000  0  6 01 09 05 21 23 17
  21069988.22609  -1474787.13009  -1149183.21105         0.00000  21069991.58505
  22267277.11408   2349992.45808   1831162.60702         0.00000  22267280.27902
  23829578.46303   -709009.09203   -552473.57501         0.00000  23829583.42401
  20258281.48509  -1303056.39409  -1015368.52505         0.00000  20258284.92305
  20980097.35909   1108956.86809    864121.97005         0.00000  20980100.47505
  23858635.06204   4045822.67804   3152586.80701         0.00000  23858638.24301
 96  9  9 21 51 30.0000000  0  6 01 05 21 23 09 17
  21066358.43309  -1493862.71309  -1164047.27805         0.00000  21066362.02105
  23824356.45804   -736475.82404   -573876.16501         0.00000  23824363.01001
  20255256.08209  -1318955.53609  -1027757.44905         0.00000  20255259.21905
  20983741.81309   1128111.59409    879047.71605         0.00000  20983745.14805
  22274463.72908   2387758.66608   1860590.82902         0.00000  22274465.82602
  23870017.53403   4105643.63703   3199200.59101         0.00000  23870019.99401
 96  9  9 21 51 45.0000000  0  6 01 05 21 23 09 17
  21062741.66609  -1512868.78909  -1178857.22205         0.00000  21062745.16005
  23819145.92803   -763856.63303   -595211.61301         0.00000  23819147.62701
  20252249.15109  -1334757.69109  -1040070.82905         0.00000  20252252.34105
  20987406.50709   1147368.34509    894052.98904         0.00000  20987409.93604
  22281671.67508   2425637.36208   1890106.63702         0.00000  22281673.85402
  23881407.05503   4165487.92203   3245832.54101         0.00000  23881408.23101
 96  9  9 21 52  0.0000000  0  6 01 23 05 21 09 17
  21059140.87809  -1531795.78609  -1193605.53205         0.00000  21059144.81705
  20991090.63709   1166732.78409    909142.14204         0.00000  20991094.97604
  23813952.21103   -791142.78803   -616473.61800         0.00000  23813957.93800
  20249262.90109  -1350452.69909  -1052300.70105         0.00000  20249266.56205
  22288902.25508   2463634.36908   1919714.69502         0.00000  22288903.07702
  23892802.12103   4225364.07803   3292489.14201         0.00000  23892810.12801
 96  9  9 21 52 15.0000000  0  6 01 23 05 21 09 17
  21055551.38109  -1550653.77709  -1208300.05205         0.00000  21055555.05205
  20994793.92109   1186192.03309    924305.20204         0.00000  20994797.71704
  23808778.82303   -818344.43703   -637669.72301         0.00000  23808782.42101
  20246295.40109  -1366048.48509  -1064453.24906         0.00000  20246299.22406
  22296152.81308   2501737.74508   1949405.62902         0.00000  22296155.39202
  23904201.82704   4285259.41404   3339160.67501         0.00000  23904199.07701
 96  9  9 21 52 30.0000000  0  6 01 05 21 23 09 17
  21051976.58709  -1569438.57609  -1222937.54505         0.00000  21051979.95405
  23803615.70803   -845455.06903   -658794.86301         0.00000  23803622.34101
  20243346.55209  -1381541.03909  -1076525.39105         0.00000  20243349.97205
  20998514.81509   1205746.07609    939542.06804         0.00000  20998518.36004
  22303423.86708   2539948.46108   1979180.28203         0.00000  22303428.01003
  23915602.08903   4345176.26203   3385849.23601         0.00000  23915602.82801
 96  9  9 21 52 45.0000000  0  6 01 05 21 23 09 17
  21048418.75709  -1588134.06509  -1237505.45905         0.00000  21048423.18605
  23798475.39202   -872456.96002   -679835.01700         0.00000  23798493.95800
  20240421.20509  -1396914.00409  -1088504.32205         0.00000  20240425.02005
  21002256.50309   1225408.57509    954863.51704         0.00000  21002260.14704
  22310717.75508   2578279.51308   2009048.57402         0.00000  22310720.99602
  23927011.86003   4405130.81403   3432566.66501         0.00000  23927015.41501
 96  9  9 21 53  0.0000000  0  6 01 23 05 21 09 17
  21044876.79809  -1606750.04909  -1252011.42805         0.00000  21044880.36505
  21006017.00309   1245169.42609    970261.55404         0.00000  21006020.36704
  23793355.12802   -899360.37302   -700798.94700         0.00000  23793364.62900
  20237516.71809  -1412177.08709  -1100397.64005         0.00000  20237520.34205
  22318032.90108   2616718.87108   2039001.31902         0.00000  22318036.07102
  23938425.08503   4465111.29303   3479304.96601         0.00000  23938432.48101
 96  9  9 21 53 15.0000000  0  6 01 23 05 21 09 17
  21041348.66409  -1625292.06509  -1266459.75505         0.00000  21041352.05405
  21009794.73309   1265023.36609    985732.17704         0.00000  21009798.71504
  23788255.06202   -926171.04802   -721690.47301         0.00000  23788266.86301
  20234631.79409  -1427335.75109  -1112209.56606         0.00000  20234635.43606
  22325366.78708   2655260.45408   2069033.73102         0.00000  22325368.89002
  23949841.74503   4525112.97103   3526059.49401         0.00000  23949850.03501
 96  9  9 21 53 30.0000000  0  6 01 05 21 23 09 17
  21037833.11809  -1643762.36909  -1280852.15905         0.00000  21037836.86705
  23783171.84602   -952890.27302   -742510.53500         0.00000  23783178.66800
  20231766.46009  -1442394.06509  -1123943.29904         0.00000  20231769.80604
  21013590.07409   1284967.09209   1001272.71704         0.00000  21013594.18304
  22332720.06509   2693898.42709   2099141.25903         0.00000  22332723.29903
  23961264.34003   4585137.78603   3572832.07101         0.00000  23961267.23401
 96  9  9 21 53 45.0000000  0  6 01 05 21 23 09 17
  21034332.09809  -1662163.07909  -1295190.38005         0.00000  21034336.36905
  23778102.30702   -979523.15102   -763263.82801         0.00000  23778103.09901
  20228918.13909  -1457359.75909  -1135604.91105         0.00000  20228921.84905
  21017401.44709   1304991.13709   1016875.87604         0.00000  21017405.71004
  22340090.00309   2732625.80209   2129318.41003         0.00000  22340093.31703
  23972689.21003   4645182.21203   3619619.61201         0.00000  23972695.02601
 96  9  9 21 54  0.0000000  0  6 01 23 05 21 09 17
  21030830.26909  -1680566.78909  -1309530.93405         0.00000  21030834.18805
  21021212.03009   1325018.54909   1032481.65105         0.00000  21021215.44605
  23773039.29803  -1006143.71903   -784006.43701         0.00000  23773043.78801
  20226074.64609  -1472306.85909  -1147251.99805         0.00000  20226077.87405
  22347461.85709   2771364.98009   2159504.77603         0.00000  22347464.98503
  23984103.56002   4705172.04202   3666365.15301         0.00000  23984109.22701
 96  9  9 21 54 15.0000000  0  6 01 23 05 21 09 17
  21027347.56209  -1698864.24809  -1323788.67705         0.00000  21027351.49805
  21025044.45709   1345159.56309   1048175.93304         0.00000  21025048.85004
  23767995.87002  -1032642.52902   -804655.04601         0.00000  23768003.05501
  20223255.31709  -1487124.50009  -1158798.20905         0.00000  20223258.16505
  22354857.07509   2810227.07209   2189786.92203         0.00000  22354860.32503
  23995528.69602   4765218.20502   3713154.75700         0.00000  23995539.86200
 96  9  9 21 54 30.0000000  0  6 01 05 21 23 09 17
  21023887.97109  -1717043.71509  -1337954.48105         0.00000  21023891.95805
  23762980.31203  -1059004.04303   -825196.47101         0.00000  23762985.36301
  20220462.02609  -1501801.55609  -1170234.85705         0.00000  20220465.10105
  21028901.41709   1365427.53309   1063969.14504         0.00000  21028904.91204
  22362277.70008   2849225.42108   2220175.20903         0.00000  22362280.76903
  24006968.43002   4825331.56202   3759995.69501         0.00000  24006978.41101
 96  9  9 21 54 45.0000000  0  6 01 05 21 23 09 17
  21020453.90509  -1735095.29209  -1352020.64305         0.00000  21020456.92605
  23757992.70903  -1085217.91403   -845622.78801         0.00000  23757996.46101
  20217697.85209  -1516329.06609  -1181555.00904         0.00000  20217701.04704
  21032784.31209   1385833.98509   1079870.28104         0.00000  21032788.60204
  22369727.23609   2888370.14709   2250677.60003         0.00000  22369730.48603
  24018426.11903   4885522.79003   3806897.77401         0.00000  24018430.99801
 96  9  9 21 55  0.0000000  0  6 01 23 05 21 09 17
  21017026.02909  -1753107.21409  -1366055.91105         0.00000  21017029.24205
  21036678.33409   1406291.12609   1095810.91104         0.00000  21036682.58704
  23753016.64803  -1111373.99903   -866004.12201         0.00000  23753021.98801
  20214944.67209  -1530791.77709  -1192824.64005         0.00000  20214948.81105
  22377187.72809   2927575.24209   2281226.99303         0.00000  22377190.53303
  24029878.98103   4945702.67503   3853791.13100         0.00000  24029886.65800
 96  9  9 21 55 15.0000000  0  6 01 23 05 21 09 17
  21013609.62209  -1771057.49809  -1380043.12405         0.00000  21013612.81105
  21040585.00109   1426824.64909   1111811.07904         0.00000  21040588.71004
  23748054.38903  -1137450.13903   -886323.41801         0.00000  23748056.50001
  20212209.40709  -1545166.95009  -1204026.08305         0.00000  20212213.61505
  22384664.28409   2966865.22209   2311842.54703         0.00000  22384666.64903
  24041330.71103   5005894.39303   3900693.64500         0.00000  24041336.44100
 96  9  9 21 55 30.0000000  0  6 01 05 21 23 09 17
  21010206.64709  -1788940.37809  -1393977.82905         0.00000  21010209.91205
  23743105.82503  -1163440.12903   -906575.19701         0.00000  23743112.59701
  20209491.95209  -1559447.79209  -1215153.99305         0.00000  20209495.31705
  21044508.28109   1447442.40209   1127876.83904         0.00000  21044512.76504
  22392158.63009   3006244.91709   2342528.01103         0.00000  22392160.56503
  24052785.93303   5066102.78603   3947609.43801         0.00000  24052795.07601
 96  9  9 21 55 45.0000000  0  6 01 05 21 23 09 17
  21006814.19609  -1806769.40209  -1407870.56405         0.00000  21006818.39105
  23738173.53002  -1189359.79702   -926772.38401         0.00000  23738177.57401
  20206789.99309  -1573646.02809  -1226217.55605         0.00000  20206793.26105
  21048444.87709   1468132.21409   1143998.77704         0.00000  21048449.08004
  22399666.20709   3045699.27909   2373271.63803         0.00000  22399669.21203
  24064244.30903   5126309.95703   3994523.98701         0.00000  24064250.95301
 96  9  9 21 56  0.0000000  0  6 01 23 05 21 09 17
  21003433.90409  -1824532.02309  -1421711.57505         0.00000  21003438.44205
  21052399.34309   1488910.38509   1160189.52704         0.00000  21052403.22904
  23733257.55203  -1215196.17003   -946904.62801         0.00000  23733260.79001
  20204107.25109  -1587745.51309  -1237204.17605         0.00000  20204110.18105
  22407190.07308   3085240.86908   2404083.26002         0.00000  22407191.24102
  24075705.81103   5186526.52303   4041446.01501         0.00000  24075725.01501
 96  9  9 21 56 15.0000000  0  6 01 23 05 21 09 17
  21000065.22609  -1842232.54209  -1435504.17605         0.00000  21000070.03705
  21056370.98809   1509781.77909   1176452.97704         0.00000  21056374.56704
  23728357.73402  -1240950.02602   -966972.39800         0.00000  23728360.06500
  20201442.77609  -1601747.16909  -1248114.54605         0.00000  20201446.13405
  22414730.17208   3124867.42208   2434961.06402         0.00000  22414733.24602
  24087166.59203   5246751.63103   4088374.59101         0.00000  24087179.48701
 96  9  9 21 56 30.0000000  0  6 01 05 21 23 09 17
  20996708.79909  -1859871.44609  -1449248.79505         0.00000  20996713.00705
  23723473.16803  -1266615.44903   -986971.24700         0.00000  23723476.19700
  20198797.16209  -1615651.04209  -1258948.74005         0.00000  20198800.25205
  21060361.46209   1530749.96909   1192791.78604         0.00000  21060365.10104
  22422288.34708   3164583.83608   2465908.93002         0.00000  22422291.28402
  24098629.51004   5306989.90404   4135313.51701         0.00000  24098638.31901
 96  9  9 21 56 45.0000000  0  6 01 05 21 23 09 17
  20993367.94109  -1877430.87209  -1462931.44706         0.00000  20993372.12906
  23718609.34103  -1292174.92303  -1006887.95501         0.00000  23718608.93601
  20196172.63109  -1629439.67009  -1269693.11905         0.00000  20196175.87505
  21064372.49709   1551831.64909   1209219.06404         0.00000  21064376.12304
  22429866.08508   3204407.41008   2496940.27702         0.00000  22429869.28902
  24110098.18604   5367261.65204   4182278.29501         0.00000  24110105.77101
 96  9  9 21 57  0.0000000  0  6 01 23 05 21 09 17
  20990040.46609  -1894917.75909  -1476557.59506         0.00000  20990044.07606
  21068404.63109   1573017.77409   1225727.73204         0.00000  21068408.06604
  23713763.47403  -1317637.49903  -1026728.84401         0.00000  23713764.62301
  20193569.95709  -1643119.18609  -1280352.47105         0.00000  20193572.81205
  22437463.29808   3244330.93708   2528049.51503         0.00000  22437466.58703
  24121571.56803   5427559.87303   4229263.96301         0.00000  24121579.21601
 96  9  9 21 57 15.0000000  0  6 01 23 05 21 09 17
  20986723.38109  -1912351.51109  -1490142.35106         0.00000  20986726.75206
  21072452.81609   1594291.75509   1242304.85104         0.00000  21072456.66204
  23708934.42303  -1343018.73203  -1046506.31701         0.00000  23708934.99501
  20190984.32909  -1656705.83509  -1290939.47905         0.00000  20190987.56505
  22445076.48508   3284337.24908   2559223.24502         0.00000  22445079.46202
  24133048.27604   5487866.03504   4276255.72301         0.00000  24133052.28601
 96  9  9 21 57 30.0000000  0  6 23 05 01 21 09 17
  21076521.10209   1615669.31109   1258962.67005         0.00000  21076524.78105
  23704122.22103  -1368302.36503  -1066207.88701         0.00000  23704127.61901
  20983418.57509  -1929716.76409  -1503673.68606         0.00000  20983421.81806
  20188419.66209  -1670184.83209  -1301442.59005         0.00000  20188423.37705
  22452708.55608   3324441.36808   2590473.17602         0.00000  22452712.20602
  24144528.04603   5548195.65603   4323265.71401         0.00000  24144535.08701
 96  9  9 21 57 45.0000000  0  6 23 05 01 21 09 17
  21080608.82209   1637149.36209   1275700.38305         0.00000  21080612.72305
  23699331.80803  -1393485.40003  -1085831.09201         0.00000  23699336.72501
  20980127.20509  -1947013.53509  -1517151.68405         0.00000  20980130.32905
  20185874.73209  -1683557.52909  -1311862.86705         0.00000  20185878.48205
  22460358.94208   3364643.42008   2621799.43602         0.00000  22460362.16502
  24156013.51704   5608547.00204   4370292.68901         0.00000  24156018.87601
 96  9  9 21 58  0.0000000  0  6 23 09 05 01 21 17
  21084715.20909   1658732.25809   1292518.22104         0.00000  21084719.58304
  22468027.90708   3404944.98108   2653203.28602         0.00000  22468030.67702
  23694561.75504  -1418563.06504  -1105372.25000         0.00000  23694566.36500
  20976849.03009  -1964242.92709  -1530577.16106         0.00000  20976852.26406
  20183350.27209  -1696822.42509  -1322199.14105         0.00000  20183353.89305
  24167503.71404   5668922.95304   4417338.97801         0.00000  24167502.62401
 96  9  9 21 58 15.0000000  0  6 23 09 05 21 01 17
  21088837.49509   1680394.17009   1309397.60804         0.00000  21088841.40904
  22475711.37508   3445322.51408   2684666.28102         0.00000  22475714.54902
  23689803.53803  -1443555.87403  -1124846.74301         0.00000  23689811.11801
  20180841.73609  -1710003.13909  -1332469.84505         0.00000  20180845.89705
  20973578.72209  -1981427.63609  -1543967.83406         0.00000  20973581.28806
  24178993.85104   5729303.11404   4464388.24901         0.00000  24178996.53401
 96  9  9 21 58 30.0000000  0  6 23 05 01 21 09 17
  21092978.83709   1702152.30909   1326352.01304         0.00000  21092982.48704
  23685068.00303  -1468440.88603  -1144237.79701         0.00000  23685070.55701
  20970320.50909  -1998545.39209  -1557306.35906         0.00000  20970323.63806
  20178353.87209  -1723079.92609  -1342659.54505         0.00000  20178357.75605
  22483413.41408   3485797.58608   2716205.32102         0.00000  22483415.07202
  24190489.51104   5789706.66704   4511455.84401         0.00000  24190495.98601
 96  9  9 21 58 45.0000000  0  6 23 05 01 21 09 17
  21097141.09109   1724024.20709   1343395.04105         0.00000  21097144.83605
  23680357.76804  -1493195.90204  -1163527.27201         0.00000  23680362.51801
  20967080.51209  -2015570.35509  -1570572.56705         0.00000  20967084.53005
  20175890.16709  -1736027.91009  -1352748.89205         0.00000  20175893.38105
  22491138.20708   3526393.17408   2747838.18602         0.00000  22491141.32002
  24201992.60704   5850153.50004   4558557.29201         0.00000  24201995.44601
 96  9  9 21 59  0.0000000  0  6 23 09 05 01 21 17
  21101320.09709   1745985.79709   1360507.96204         0.00000  21101323.26604
  22498881.54708   3567082.66308   2779544.26702         0.00000  22498882.65302
  23675665.64304  -1517846.17204  -1182735.43401         0.00000  23675670.91101
  20963854.24609  -2032525.42609  -1583784.29905         0.00000  20963859.14605
  20173447.24109  -1748868.21809  -1362754.33306         0.00000  20173450.50106
  24213497.10803   5910613.68603   4605669.19601         0.00000  24213502.49301
 96  9  9 21 59 15.0000000  0  6 23 09 05 01 21 17
  21105513.95409   1768026.93209   1377682.87304         0.00000  21105517.75704
  22506639.15508   3607851.38108   2811312.09903         0.00000  22506641.62003
  23670990.42803  -1542402.72203  -1201870.37201         0.00000  23670997.34301
  20960637.13609  -2049424.89009  -1596952.72805         0.00000  20960642.30105
  20171022.14309  -1761611.34709  -1372684.04105         0.00000  20171025.27705
  24225001.21303   5971073.29903   4652780.31701         0.00000  24225013.00901
 96  9  9 21 59 30.0000000  0  6 23 05 01 21 09 17
  21109726.35409   1790167.75109   1394935.43604         0.00000  21109730.70004
  23666339.72104  -1566849.43104  -1220919.78001         0.00000  23666348.02601
  20957436.32809  -2066246.59409  -1610060.53205         0.00000  20957441.35705
  20168618.79209  -1774239.94209  -1382524.49205         0.00000  20168622.29405
  22514415.79907   3648716.50907   2843155.09302         0.00000  22514417.94802
  24236509.42403   6031551.14503   4699905.89601         0.00000  24236517.68101
 96  9  9 21 59 45.0000000  0  6 23 05 21 01 09 17
  21113956.93209   1812397.89809   1412257.61504         0.00000  21113961.22204
  23661708.33704  -1591194.26204  -1239889.80601         0.00000  23661712.16401
  20166235.46109  -1786764.12209  -1392283.58905         0.00000  20166238.97405
  20954249.34009  -2082996.18809  -1623112.16306         0.00000  20954253.49906
  22522209.36207   3689669.49007   2875066.46102         0.00000  22522213.03202
  24248019.83603   6092038.24103   4747039.11200         0.00000  24248020.09700
 96  9  9 22  0  0.0000000  0  6 23 09 05 01 21 17
  21118201.85309   1834704.56909   1429639.42604         0.00000  21118206.14604
  22530017.03707   3730696.79607   2907035.75702         0.00000  22530020.01902
  23657091.19604  -1615448.20004  -1258788.92601         0.00000  23657092.10301
  20951074.03909  -2099685.12209  -1636116.52206         0.00000  20951077.65506
  20163869.80409  -1799197.58509  -1401972.00305         0.00000  20163873.07705
  24259531.04403   6152521.18803   4794168.31400         0.00000  24259533.88300
 96  9  9 22  0 15.0000000  0  6 23 05 21 01 09 17
  21122465.87509   1857109.44109   1447097.78604         0.00000  21122470.06004
  23652497.68204  -1639592.27404  -1277602.62101         0.00000  23652501.31801
  20161525.21309  -1811516.76209  -1411571.37005         0.00000  20161529.13405
  20947915.17409  -2116288.85409  -1649054.48406         0.00000  20947919.37406
  22537842.51507   3771821.75007   2939081.17102         0.00000  22537847.13902
  24271043.57503   6213023.92003   4841313.18800         0.00000  24271046.87400
 96  9  9 22  0 30.0000000  0  6 23 05 01 21 09 17
  21126746.83409   1879608.52509   1464629.51204         0.00000  21126751.47304
  23647922.75104  -1663628.83104  -1296332.38501         0.00000  23647927.43101
  20944771.99409  -2132805.04009  -1661924.23306         0.00000  20944775.14506
  20159201.41209  -1823725.85409  -1421084.95406         0.00000  20159204.97606
  22545687.91008   3813045.85008   2971203.82102         0.00000  22545691.15102
  24282561.19503   6273543.67903   4888471.19300         0.00000  24282565.53100
 96  9  9 22  0 45.0000000  0  6 23 05 01 21 09 17
  21131038.12609   1902161.31909   1482203.10604         0.00000  21131042.92104
  23643360.61403  -1687596.20003  -1315008.13901         0.00000  23643366.79501
  20941638.34109  -2149273.27009  -1674756.63805         0.00000  20941640.73405
  20156892.16209  -1835863.26409  -1430542.67205         0.00000  20156895.62205
  22553544.07507   3854333.19307   3003375.78302         0.00000  22553547.50202
  24294070.50002   6334039.43302   4935610.72100         0.00000  24294080.89300
 96  9  9 22  1  0.0000000  0  6 23 09 05 01 21 17
  21135347.88909   1924808.20009   1499850.04904         0.00000  21135352.17204
  22561420.38407   3895720.66007   3035625.74003         0.00000  22561422.87403
  23638821.13904  -1711458.90904  -1333602.41401         0.00000  23638827.80801
  20938520.84409  -2165657.50609  -1687523.56005         0.00000  20938523.39905
  20154603.57709  -1847888.59409  -1439913.06605         0.00000  20154607.30005
  24305584.74402   6394550.20802   4982761.88201         0.00000  24305597.96501
 96  9  9 22  1 15.0000000  0  6 23 09 05 21 01 17
  21139672.71509   1947532.66109   1517557.40304         0.00000  21139676.85804
  22569310.79307   3937187.39107   3067937.49202         0.00000  22569314.10302
  23634296.89804  -1735236.00904  -1352130.05601         0.00000  23634304.45301
  20152332.72709  -1859822.86309  -1449212.49306         0.00000  20152336.09106
  20935415.09809  -2181978.87409  -1700241.51206         0.00000  20935417.99606
  24317100.42102   6455059.68602   5029912.18400         0.00000  24317106.56400
 96  9  9 22  1 30.0000000  0  6 23 05 01 21 09 17
  21144014.10309   1970345.02009   1535333.25504         0.00000  21144017.48004
  23629792.30705  -1758916.87105  -1370582.60001         0.00000  23629799.31501
  20932323.47809  -2198222.69609  -1712899.05905         0.00000  20932325.84605
  20150081.00709  -1871656.09009  -1458433.17205         0.00000  20150084.08905
  22577219.51107   3978746.84107   3100321.44603         0.00000  22577222.76403
  24328618.36902   6515580.90602   5077071.53001         0.00000  24328630.08401
 96  9  9 22  1 45.0000000  0  6 23 05 01 21 09 17
  21148375.56509   1993263.15809   1553191.55205         0.00000  21148379.22405
  23625308.74905  -1782480.31005  -1388943.72901         0.00000  23625311.81001
  20929250.45709  -2214369.42609  -1725480.90905         0.00000  20929253.48305
  20147851.76109  -1883370.37709  -1467561.21005         0.00000  20147855.51805
  22585149.84907   4020419.39607   3132793.55202         0.00000  22585153.14202
  24340142.19503   6576132.03603   5124254.24900         0.00000  24340148.21400
 96  9  9 22  2  0.0000000  0  6 23 09 05 01 21 17
  21152746.78109   2016240.26409   1571095.79804         0.00000  21152751.02004
  22593091.49307   4062158.32407   3165317.38402         0.00000  22593094.79502
  23620838.65305  -1805971.07605  -1407248.19701         0.00000  23620842.83001
  20926186.91609  -2230467.68809  -1738025.00205         0.00000  20926190.24105
  20145636.19309  -1895012.52409  -1476632.99805         0.00000  20145639.41105
  24351660.34502   6636666.78202   5171423.85601         0.00000  24351667.54401
 96  9  9 22  2 15.0000000  0  6 23 05 09 01 21 17
  21157133.93309   2039294.08109   1589059.79904         0.00000  21157138.43004
  23616383.25904  -1829372.96604  -1425483.50901         0.00000  23616386.46601
  22601049.83407   4103978.83807   3197904.74002         0.00000  22601052.78602
  20923136.28309  -2246501.12809  -1750518.59205         0.00000  20923139.50305
  20143438.47909  -1906562.62509  -1485633.08505         0.00000  20143442.25705
  24363177.83002   6697204.29502   5218596.03001         0.00000  24363181.04201
 96  9  9 22  2 30.0000000  0  6 23 05 01 21 09 17
  21161533.17808   2062416.85408   1607077.50604         0.00000  21161537.76804
  23611945.98004  -1852695.15604  -1443656.57501         0.00000  23611952.55401
  20920095.24609  -2262479.73809  -1762969.44805         0.00000  20920098.88505
  20141257.08609  -1918027.18109  -1494566.50606         0.00000  20141260.52406
  22609020.96707   4145870.74507   3230547.81803         0.00000  22609025.64103
  24374694.73802   6757736.15902   5265763.45800         0.00000  24374697.04500
 96  9  9 22  2 45.0000000  0  6 23 05 01 21 09 17
  21165942.93108   2085587.59508   1625132.63704         0.00000  21165948.67704
  23607519.64404  -1875958.40404  -1461783.87101         0.00000  23607523.40301
  20917060.65909  -2278428.49109  -1775397.04306         0.00000  20917064.07206
  20139088.18509  -1929425.53909  -1503448.35306         0.00000  20139091.43906
  22617000.89107   4187807.08207   3263225.44002         0.00000  22617004.58302
  24386206.68602   6818238.34702   5312908.28501         0.00000  24386210.44301
 96  9  9 22  3  0.0000000  0  6 23 09 05 01 21 17
  21170376.14809   2108883.33009   1643285.15304         0.00000  21170380.45004
  22625001.90206   4229856.21206   3295990.95402         0.00000  22625007.01902
  23603114.84103  -1899091.77403  -1479809.87201         0.00000  23603119.01801
  20914044.96209  -2294275.55409  -1787745.40005         0.00000  20914048.52005
  20136945.85909  -1940682.26909  -1512219.82106         0.00000  20136948.76706
  24397730.96602   6878784.89102   5360086.64900         0.00000  24397759.92700
 96  9  9 22  3 15.0000000  0  7 23 09 25 01 21 05 17
  21174825.60509   2132264.34809   1661504.11604         0.00000  21174829.82004
  22633016.66607   4271971.36007   3328807.98902         0.00000  22633021.16202
  24091512.49402    -42321.71502    -32977.358100         0.00000  24091519.07700
  20911039.99809  -2310063.12909  -1800047.39106         0.00000  20911043.67106
  20134822.31809  -1951842.33909  -1520915.96606         0.00000  20134825.52106
  23598727.64903  -1922138.45403  -1497768.18800         0.00000  23598732.19200
  24409253.55602   6939332.60302   5407266.79901         0.00000  24409259.70601
 96  9  9 22  3 30.0000000  0  7 23 25 21 01 05 09 17
  21179292.66109   2155734.52709   1679792.56104         0.00000  21179297.38204
  24081448.88902    -95197.53102    -74179.05100         0.00000  24081441.38900
  20132717.67509  -1962901.19009  -1529533.26205         0.00000  20132721.03705
  20908048.10809  -2325783.64209  -1812297.14106         0.00000  20908052.27406
  23594359.96803  -1945091.03803  -1515653.33801         0.00000  23594362.26801
  22641044.45107   4314159.59007   3361681.89302         0.00000  22641048.24302
  24420778.21703   6999885.61603   5454451.27501         0.00000  24420781.15201
 96  9  9 22  3 45.0000000  0  7 23 09 25 01 21 05 17
  21183778.55009   2179308.70309   1698162.03204         0.00000  21183781.95504
  22649090.08707   4356433.14207   3394622.31202         0.00000  22649094.18502
  24071396.97602   -148035.97802   -115351.45500         0.00000  24071374.95500
  20905072.15809  -2341424.54609  -1824484.84806         0.00000  20905076.64206
  20130634.62509  -1973844.14909  -1538060.24605         0.00000  20130639.00905
  23590013.82303  -1967934.15503  -1533453.37501         0.00000  23590022.37701
  24432303.88503   7060455.20803   5501648.22701         0.00000  24432306.23301
 96  9  9 22  4  0.0000000  0  7 23 09 25 01 21 05 17
  21188280.74809   2202971.96109   1716600.90704         0.00000  21188283.97904
  22657146.42307   4398775.48407   3427616.33802         0.00000  22657150.06202
  24061344.42002   -200854.62702   -156508.94500         0.00000  24061367.61000
  20902108.01409  -2357006.76709  -1836626.84006         0.00000  20902111.62806
  20128571.15809  -1984687.44209  -1546509.56805         0.00000  20128575.62205
  23585684.44502  -1990684.34902  -1551180.47901         0.00000  23585695.50301
  24443827.85203   7121026.28703   5548846.42301         0.00000  24443832.74701
 96  9  9 22  4 15.0000000  0  7 23 09 25 01 21 05 17
  21192804.37809   2226739.15609   1735120.80004         0.00000  21192807.55604
  22665220.58907   4441201.37607   3460675.43402         0.00000  22665225.43402
  24051299.12202   -253638.74902   -197639.46101         0.00000  24051297.27201
  20899156.66009  -2372517.95209  -1848713.47206         0.00000  20899160.15706
  20126530.49909  -1995414.66609  -1554868.43505         0.00000  20126534.75405
  23581377.77002  -2013328.04302  -1568824.89901         0.00000  23581379.94101
  24455356.97402   7181613.64502   5596057.41001         0.00000  24455371.89501
 96  9  9 22  4 30.0000000  0  7 23 25 01 21 05 09 17
  21197346.54409   2250609.60409   1753721.16504         0.00000  21197349.83104
  24041261.44102   -306390.15802   -238744.55301         0.00000  24041275.07501
  20896216.95809  -2387961.22309  -1860747.18806         0.00000  20896220.18306
  20124510.93409  -2006027.31209  -1563138.02006         0.00000  20124515.02406
  23577088.41702  -2035866.30102  -1586387.39701         0.00000  23577086.46801
  22673310.07707   4483709.02307   3493798.29602         0.00000  22673313.23002
  24466889.54702   7242212.82202   5643276.53500         0.00000  24466897.08400
 96  9  9 22  4 45.0000000  0  7 23 05 25 01 21 09 17
  21201908.90409   2274587.76009   1772405.41804         0.00000  21201912.02804
  23572819.11502  -2058297.11002  -1603865.71901         0.00000  23572829.49401
  24031227.64702   -359107.91702   -279823.75201         0.00000  24031256.72401
  20893291.51509  -2403334.19309  -1872726.12106         0.00000  20893295.66506
  20122513.91909  -2016523.56209  -1571316.92805         0.00000  20122517.08305
  22681415.19407   4526302.74807   3526988.17102         0.00000  22681417.79902
  24478425.21403   7302821.30903   5690504.67400         0.00000  24478429.55400
 96  9  9 22  5  0.0000000  0  7 23 09 25 01 21 05 17
  21206492.87509   2298674.46609   1791174.27904         0.00000  21206496.34704
  22689536.62907   4568982.59407   3560245.24802         0.00000  22689539.30902
  24021201.57602   -411795.97502   -320878.91001         0.00000  24021191.89701
  20890380.00009  -2418636.20809  -1884649.76306         0.00000  20890383.65706
  20120538.57109  -2026905.24909  -1579406.56205         0.00000  20120541.92705
  23568572.03503  -2080619.90503  -1621260.10101         0.00000  23568579.79901
  24489961.28903   7363437.36503   5737737.55900         0.00000  24489977.03500
 96  9  9 22  5 15.0000000  0  7 23 09 25 01 21 05 17
  21211095.67309   2322863.28509   1810022.68704         0.00000  21211099.22204
  22697675.24408   4611745.03008   3593566.61102         0.00000  22697677.95502
  24011182.39302   -464457.67602   -361914.02200         0.00000  24011174.97500
  20887480.39609  -2433874.20209  -1896523.49606         0.00000  20887484.11106
  20118581.96509  -2037181.32009  -1587413.88305         0.00000  20118585.61705
  23564344.94203  -2102839.77303  -1638574.29601         0.00000  23564348.95501
  24501496.45103   7424050.83103   5784969.13601         0.00000  24501510.19701
 96  9  9 22  5 30.0000000  0  7 23 25 21 01 05 09 17
  21215720.01509   2347162.27109   1828956.95204         0.00000  21215724.05604
  24001167.06702   -517079.09202   -402917.58201         0.00000  24001169.77901
  20116649.18709  -2047338.16109  -1595328.30205         0.00000  20116653.35105
  20884594.97409  -2449037.85109  -1908339.32206         0.00000  20884598.67306
  23560139.01503  -2124941.52103  -1655796.34401         0.00000  23560141.13101
  22705831.75608   4654605.75508   3626964.55502         0.00000  22705834.19902
  24513030.73803   7484673.32503   5832207.34001         0.00000  24513045.94601
 96  9  9 22  5 45.0000000  0  7 23 05 25 01 21 09 17
  21220361.21908   2371556.69408   1847965.56704         0.00000  21220365.57104
  23555953.31903  -2146937.30603  -1672936.04201         0.00000  23555955.12701
  23991160.08402   -569671.82802   -443898.79701         0.00000  23991152.99701
  20881720.81809  -2464140.26409  -1920107.41606         0.00000  20881724.16506
  20114736.82909  -2057387.82209  -1603159.19906         0.00000  20114741.24806
  22714003.13307   4697552.39107   3660429.47602         0.00000  22714006.34302
  24524564.15503   7545292.72103   5879443.21101         0.00000  24524568.61701
 96  9  9 22  6  0.0000000  0  7 23 09 25 01 21 05 17
  21225026.38408   2396073.66108   1867069.70904         0.00000  21225031.64704
  22722196.73607   4740613.51607   3693983.51102         0.00000  22722199.36702
  23981165.25902   -622205.16402   -484833.92501         0.00000  23981159.80901
  20878862.92909  -2479155.06809  -1931807.25905         0.00000  20878866.09905
  20112850.04409  -2067304.32509  -1610886.35105         0.00000  20112853.55605
  23551793.03303  -2168800.26003  -1689971.97801         0.00000  23551794.06801
  24536105.03403   7605936.70803   5926698.06301         0.00000  24536105.44101
 96  9  9 22  6 15.0000000  0  7 23 09 25 01 21 05 17
  21229707.96408   2420676.58708   1886240.80604         0.00000  21229713.68204
  22730406.30007   4783756.98307   3727601.81902         0.00000  22730409.83102
  23971172.01702   -674712.41502   -525748.31601         0.00000  23971178.94301
  20876016.99409  -2494113.17309  -1943462.93305         0.00000  20876020.60605
