     2              OBSERVATION DATA    GPS                 RINEX VERSION / TYPE
TBIN                XXXXXXXXXXXX        96-09-09 22:06:15   PGM / RUN BY / DATE 
TOPCON-GEOCOMP RINEX Formatter-Version: 96.06.XX            COMMENT             
MODE : STATIC                                               COMMENT             
S.HT.NUM2                                                   COMMENT             
PTB1                                                        MARKER NAME         
PLR                                                         OBSERVER / AGENCY   
UNKNOWN                                                     REC# / TYPE / VERS  
UNKNOWN                                                     ANT # / TYPE        
   596890.1301 -4847812.3827  4088158.1131                  APPROX POSITION XYZ 
LATN  40 07 05.34763   LONE 277 01 09.31023    203.953(m)   COMMENT             
LATN  40 07 05.34763   LONW  82 58 50.68977    203.953(m)   COMMENT             
        1.6135        0.0000        0.0000                  ANTENNA: DELTA H/E/N
Original slant height(m) :   1.6150 Radius Used:0.0699      COMMENT             
   --> NO OFFSETS WERE ADDED TO ANTENNA: DELTA H/E/N <--    COMMENT             
                                                _______     COMMENT             
                                               /       \    COMMENT             
                                              |  TSII   |   COMMENT             
                                              | ANTENNA |   COMMENT             
HEIGHT MEASURED TO THIS POINT ______________\ |_________|   COMMENT             
                                            /   |__^__|     COMMENT             
Offset of preamp to circular base of antenna(m) : 0.0206    COMMENT             
Turbo SII antenna radius(m) :       0.0699                  COMMENT             
TurboRogue Choke ring radius(m) :   0.1896                  COMMENT             
Turbo SII antenna offsets(m) :      L1:  0.0530 L2:  0.0510 COMMENT             
TurboRogue Choke ring offsets(m) :  L1: -0.0064 L2:  0.0198 COMMENT             
     1     1                                                WAVELENGTH FACT L1/2
     5    C1    L1    L2    P1    P2                        # / TYPES OF OBSERV 
  1996     9     9    21    35   59.000000                  TIME OF FIRST OBS   
                                                            END OF HEADER       
                            3  4                                                
PTB1                                                        MARKER NAME         
USER COMMENT: S.HT.NUM2                                     COMMENT             
   596890.1301 -4847812.3827  4088158.1131                  APPROX POSITION XYZ 
LATN  40 07 05.34763   LONE 277 01 09.31023    203.953(m)   COMMENT             
LATN  40 07 05.34763   LONW  82 58 50.68977    203.953(m)   COMMENT             
        1.6135        0.0000        0.0000                  ANTENNA: DELTA H/E/N
        --> THIS IS A START OF A NEW SITE <--               COMMENT             
                 --> MODE: STATIC <--                       COMMENT             
 96  9  9 21 40  0.0000000  0  6 01 09 05 21 23 17
  21246974.93409  -2173281.34009  -1693465.50205         0.00000  21246978.90105
  21964104.50007   2379198.75707   1853920.98802         0.00000  21964108.09602
  24080706.83303    -76806.68703    -59848.13900         0.00000  24080712.93700
  20412280.01509  -2004580.86309  -1562010.22305         0.00000  20412283.11205
  20833698.91809    976821.22309    761159.19904         0.00000  20833701.90304
  23351885.78105   4825647.16005   3760242.82101         0.00000  23351892.26301
 96  9  9 21 40 15.0000000  0  6 01 09 05 21 23 17
  21242739.89609  -2195538.68909  -1710808.87805         0.00000  21242743.44205
  21970385.67607   2412207.39607   1879641.97102         0.00000  21970389.43502
  24074798.86603   -107839.72303    -84030.28600         0.00000  24074797.11400
  20408480.38809  -2024547.80409  -1577568.87905         0.00000  20408483.83205
  20836578.87509    991955.81009    772952.39805         0.00000  20836582.13705
  23362998.53305   4884046.73505   3805748.91401         0.00000  23363002.57001
 96  9  9 21 40 30.0000000  0  6 01 09 05 21 23 17
  21238517.24909  -2217729.07809  -1728100.09405         0.00000  21238520.75805
  21976688.23708   2445324.05908   1905447.18803         0.00000  21976690.60903
  24068905.64503   -138809.70203   -108162.86200         0.00000  24068908.94900
  20404695.36709  -2044436.94709  -1593066.90205         0.00000  20404699.00405
  20839473.99309   1007169.70709    784807.35004         0.00000  20839477.50204
  23374118.25005   4942480.96105   3851281.98001         0.00000  23374124.33101
 96  9  9 21 40 45.0000000  0  6 01 09 05 21 23 17
  21234311.43809  -2239831.31409  -1745322.60005         0.00000  21234314.60205
  21983014.61108   2478565.54508   1931349.62403         0.00000  21983017.53103
  24063028.36103   -169696.99603   -132230.42501         0.00000  24063029.33601
  20400931.05709  -2064223.81609  -1608485.24906         0.00000  20400934.96206
  20842387.54709   1022481.08409    796738.28104         0.00000  20842391.11104
  23385249.71806   5000970.26706   3896858.09102         0.00000  23385255.14802
 96  9  9 21 41  0.0000000  0  6 01 09 05 21 23 17
  21230120.55809  -2261852.58209  -1762482.01505         0.00000  21230123.80905
  21989362.68508   2511923.43008   1957342.78303         0.00000  21989365.47203
  24057165.16203   -200508.85003   -156240.41700         0.00000  24057163.97900
  20397184.38209  -2083911.91609  -1623826.63406         0.00000  20397187.55006
  20845318.84009   1037884.22509    808740.73205         0.00000  20845322.59505
  23396388.96306   5059508.28306   3942472.12302         0.00000  23396394.38902
 96  9  9 21 41 15.0000000  0  6 01 09 05 21 23 17
  21225943.59709  -2283801.44809  -1779585.01904         0.00000  21225947.18004
  21995731.29508   2545390.67708   1983421.14203         0.00000  21995733.89303
  24051307.17202   -231251.76202   -180195.01900         0.00000  24051306.57800
  20393454.95209  -2103509.34009  -1639097.34805         0.00000  20393458.20505
  20848266.89909   1053372.39709    820809.43505         0.00000  20848270.54805
  23407535.92706   5118085.35406   3988116.49801         0.00000  23407541.80101
 96  9  9 21 41 30.0000000  0  6 01 09 05 21 23 17
  21221781.40609  -2305676.33809  -1796630.39805         0.00000  21221784.91005
  22002121.16908   2578969.51508   2009586.45303         0.00000  22002123.91603
  24045477.29902   -261922.50502   -204094.24901         0.00000  24045484.82101
  20389742.97009  -2123014.41809  -1654296.09906         0.00000  20389746.37206
  20851230.29509   1068947.78309    832946.07004         0.00000  20851234.20104
  23418691.23206   5176702.94006   4033792.46502         0.00000  23418699.07402
 96  9  9 21 41 45.0000000  0  6 01 09 05 21 23 17
  21217631.62409  -2327480.02009  -1813620.25704         0.00000  21217634.40904
  22008531.24208   2612658.06908   2035837.29303         0.00000  22008533.94403
  24039655.62503   -292521.70203   -227937.93301         0.00000  24039661.63901
  20386048.23209  -2142432.33709  -1669426.95005         0.00000  20386051.62605
  20854210.69809   1084608.55509    845149.26504         0.00000  20854214.23204
  23429852.16105   5235360.02905   4079499.24702         0.00000  23429857.18502
 96  9  9 21 42  0.0000000  0  6 01 09 05 21 23 17
  21213498.41909  -2349204.32209  -1830548.29704         0.00000  21213501.33304
  22014964.25608   2646463.91208   2062179.47503         0.00000  22014966.44303
  24033847.95803   -323040.94403   -251719.31101         0.00000  24033853.85301
  20382370.63809  -2161756.89909  -1684485.04705         0.00000  20382373.76905
  20857208.04709   1100362.13509    857424.76605         0.00000  20857211.82505
  23441023.10905   5294062.99505   4125241.83701         0.00000  23441028.37501
 96  9  9 21 42 15.0000000  0  6 01 09 05 21 23 17
  21209379.80809  -2370844.66309  -1847410.89305         0.00000  21209382.14705
  22021421.01708   2680393.52208   2088618.13803         0.00000  22021424.23003
  24028053.62503   -353476.40403   -275435.03601         0.00000  24028057.00401
  20378711.53409  -2180984.76709  -1699467.77805         0.00000  20378714.35705
  20860224.43809   1116211.89309    869775.23405         0.00000  20860227.95605
  23452203.36905   5352817.04905   4171024.13302         0.00000  23452208.33302
 96  9  9 21 42 30.0000000  0  6 01 09 05 21 23 17
  21205272.48509  -2392430.53809  -1864231.05704         0.00000  21205275.44804
  22027895.01108   2714416.05508   2115129.18603         0.00000  22027898.17503
  24022273.01402   -383855.04702   -299106.88300         0.00000  24022277.64200
  20375065.84809  -2200143.74409  -1714396.86405         0.00000  20375068.79405
  20863253.46609   1132130.18509    882179.09105         0.00000  20863257.00405
  23463388.74705   5411592.14405   4216822.97501         0.00000  23463393.27101
 96  9  9 21 42 45.0000000  0  6 01 09 05 21 23 17
  21201176.97509  -2413951.62009  -1881000.73004         0.00000  21201179.17704
  22034388.97308   2748544.70208   2141722.91603         0.00000  22034392.02203
  24016503.31102   -414161.27202   -322721.55801         0.00000  24016524.63901
  20371436.07209  -2219217.62809  -1729259.62305         0.00000  20371438.98505
  20866299.32609   1148136.22309    894651.32704         0.00000  20866302.50004
  23474578.89105   5470398.16605   4262645.81801         0.00000  23474583.34301
 96  9  9 21 43  0.0000000  0  6 01 05 09 21 23 17
  21197095.62509  -2435399.63609  -1897713.45904         0.00000  21197097.87304
  24010754.77103   -444383.71303   -346271.87201         0.00000  24010772.56601
  22040905.01907   2782788.92107   2168406.71703         0.00000  22040908.88803
  20367824.25309  -2238196.94009  -1744048.70505         0.00000  20367827.44305
  20869364.18309   1164243.05409    907202.11505         0.00000  20869367.80705
  23485775.48205   5529243.90605   4308499.50102         0.00000  23485781.74402
 96  9  9 21 43 15.0000000  0  6 01 05 21 23 09 17
  21193029.51609  -2456762.91709  -1914360.17205         0.00000  21193032.58505
  24005021.86003   -474509.88803   -369746.83301         0.00000  24005021.75701
  20364232.48409  -2257072.52309  -1758756.94305         0.00000  20364235.52405
  20872451.37309   1180463.56709    919841.46404         0.00000  20872455.49704
  22047445.89007   2817160.62107   2195189.88603         0.00000  22047449.60003
  23496984.22705   5588138.69905   4354391.50401         0.00000  23496990.19901
 96  9  9 21 43 30.0000000  0  6 01 09 05 21 23 17
  21188977.46109  -2478056.43409  -1930952.51504         0.00000  21188980.92704
  22054006.61507   2851641.13607   2222057.80403         0.00000  22054010.34503
  23999308.04104   -504555.09504   -393158.52301         0.00000  23999316.27401
  20360656.44009  -2275865.14509  -1773400.56706         0.00000  20360659.32306
  20875555.11409   1196778.57009    932554.44305         0.00000  20875558.62705
  23508197.91705   5647064.74805   4400307.88702         0.00000  23508202.86202
 96  9  9 21 43 45.0000000  0  6 01 09 05 21 23 17
  21184938.18009  -2499281.16909  -1947491.26704         0.00000  21184941.74904
  22060590.51908   2886229.41008   2249009.71003         0.00000  22060594.96403
  23993605.65004   -534521.38004   -416508.85901         0.00000  23993609.06601
  20357095.99209  -2294576.11309  -1787980.52805         0.00000  20357099.07505
  20878677.43709   1213186.15909    945339.56605         0.00000  20878681.42405
  23519417.08605   5706022.68105   4446249.12601         0.00000  23519422.25201
 96  9  9 21 44  0.0000000  0  6 01 05 21 23 09 17
  21180913.33209  -2520434.92609  -1963974.70304         0.00000  21180917.07904
  23987917.29604   -564408.63604   -439797.60401         0.00000  23987922.38901
  20353551.84109  -2313205.98909  -1802497.31706         0.00000  20353554.94506
  20881817.16409   1229686.78009    958197.18804         0.00000  20881821.62704
  22067192.68808   2920924.97008   2276045.19803         0.00000  22067195.88403
  23530642.46305   5765012.63205   4492215.34902         0.00000  23530649.05102
 96  9  9 21 44 15.0000000  0  6 01 05 09 21 23 17
  21176901.18709  -2541518.91209  -1980403.75504         0.00000  21176905.41004
  23982245.20704   -594216.92404   -463024.94601         0.00000  23982249.88101
  22073815.76808   2955728.03508   2303164.49203         0.00000  22073818.77803
  20350022.08009  -2331753.68309  -1816950.06505         0.00000  20350025.30005
  20884974.13608   1246278.86908    971126.09104         0.00000  20884978.05804
  23541874.04305   5824033.87605   4538205.82001         0.00000  23541881.28001
 96  9  9 21 44 30.0000000  0  6 01 05 21 23 09 17
  21172903.08209  -2562529.88309  -1996775.93105         0.00000  21172906.64005
  23976589.18405   -623941.78405   -486187.25401         0.00000  23976591.09201
  20346508.32909  -2350213.58109  -1831334.38505         0.00000  20346511.41005
  20888149.44908   1262965.86808    984128.91304         0.00000  20888153.93604
  22080459.34608   2990641.13408   2330369.43903         0.00000  22080461.90903
  23553111.33805   5883089.64905   4584223.33901         0.00000  23553119.15501
 96  9  9 21 44 45.0000000  0  6 01 09 05 21 23 17
  21168918.56009  -2583472.56109  -2013094.91905         0.00000  21168922.12005
  22087122.56708   3025660.03008   2357656.95102         0.00000  22087124.97802
  23970947.37504   -653585.00704   -509285.68301         0.00000  23970953.81501
  20343012.66109  -2368585.74209  -1845650.34706         0.00000  20343015.70706
  20891343.01809   1279745.60409    997204.03604         0.00000  20891347.09204
  23564355.14304   5942175.86104   4630264.46001         0.00000  23564361.99001
 96  9  9 21 45  0.0000000  0  6 01 05 21 23 09 17
  21164946.27909  -2604340.67109  -2029355.77204         0.00000  21164949.69204
  23965321.01504   -683142.76904   -532317.57201         0.00000  23965322.70101
  20339533.24709  -2386865.99309  -1859894.71505         0.00000  20339536.83805
  20894554.66709   1296621.39809   1010354.00404         0.00000  20894559.05004
  22093808.54308   3060791.60508   2385032.17203         0.00000  22093811.63903
  23575605.40704   6001297.78704   4676333.44301         0.00000  23575614.81301
 96  9  9 21 45 15.0000000  0  6 01 09 05 21 23 17
  21160990.66509  -2625132.17609  -2045556.93805         0.00000  21160994.68105
  22100515.64608   3096035.65608   2412495.08303         0.00000  22100518.68703
  23959713.07604   -712617.89304   -555285.43201         0.00000  23959714.14901
  20336071.79309  -2405054.30309  -1874067.42305         0.00000  20336075.17405
  20897783.89809   1313590.24109   1023576.45404         0.00000  20897788.13004
  23586861.65404   6060456.93604   4722431.43601         0.00000  23586870.43801
 96  9  9 21 45 30.0000000  0  6 01 05 21 23 09 17
  21157048.72509  -2645848.13109  -2061699.22105         0.00000  21157052.64505
  23954118.75604   -742012.87204   -578190.66001         0.00000  23954118.39901
  20332628.22909  -2423153.03509  -1888170.31305         0.00000  20332632.38005
  20901029.38109   1330646.41109   1036866.98604         0.00000  20901033.74304
  22107243.45808   3131390.42008   2440044.23803         0.00000  22107246.48303
  23598127.82604   6119652.07104   4768557.46801         0.00000  23598138.46101
 96  9  9 21 45 45.0000000  0  6 01 09 05 21 23 17
  21153119.10909  -2666497.17809  -2077789.39204         0.00000  21153122.35204
  22113991.59309   3166848.80309   2467674.15103         0.00000  22113994.21503
  23948541.63605   -771334.88205   -601038.86601         0.00000  23948543.17301
  20329201.10609  -2441165.90509  -1902206.33405         0.00000  20329204.82805
  20904290.42609   1347781.16109   1050218.72005         0.00000  20904294.93405
  23609397.62404   6178876.82404   4814706.46201         0.00000  23609402.63201
 96  9  9 21 46  0.0000000  0  6 01 05 09 21 23 17
  21149203.28709  -2687073.71109  -2093823.04205         0.00000  21149206.29705
  23942974.45904   -800579.17204   -623826.54701         0.00000  23942974.47301
  22120759.46009   3202416.70409   2495389.36703         0.00000  22120762.30503
  20325790.92609  -2459083.05509  -1916167.72205         0.00000  20325794.21205
  20907567.22109   1365003.35509   1063638.60105         0.00000  20907571.30105
  23620674.95804   6238136.24404   4860882.81101         0.00000  23620682.55901
 96  9  9 21 46 15.0000000  0  6 01 09 05 21 23 17
  21145298.72909  -2707588.13109  -2109808.31403         0.00000  21145301.54503
  22127546.36009   3238082.32909   2523180.80703         0.00000  22127549.62803
  23937422.43704   -829753.94604   -646560.12701         0.00000  23937422.88701
  20322398.05909  -2476912.34309  -1930060.68005         0.00000  20322402.22605
  20910860.07009   1382302.65009   1077118.57404         0.00000  20910865.25104
  23631955.76904   6297418.21704   4907076.13901         0.00000  23631962.84601
 96  9  9 21 46 30.0000000  0  6 01 05 21 23 09 17
  21141406.91609  -2728038.27509  -2125743.48404         0.00000  21141409.82504
  23931882.78504   -858854.51604   -669235.80501         0.00000  23931892.23101
  20319022.70009  -2494647.92909  -1943880.63605         0.00000  20319027.47205
  20914166.97409   1399682.55209   1090661.34405         0.00000  20914170.68105
  22134352.21509   3273848.04009   2551050.16603         0.00000  22134354.76203
  23643242.21105   6356725.32905   4953289.73601         0.00000  23643245.13601
 96  9  9 21 46 45.0000000  0  6 01 09 05 21 23 17
  21137529.98309  -2748412.95109  -2141619.81503         0.00000  21137533.00803
  22141178.03908   3309723.14408   2579004.79603         0.00000  22141182.01703
  23926362.82804   -887871.03204   -691846.06201         0.00000  23926363.20601
  20315668.01709  -2512278.92309  -1957619.05705         0.00000  20315672.00205
  20917491.50109   1417155.03709   1104276.28004         0.00000  20917495.06804
  23654535.85605   6416069.68305   4999531.98201         0.00000  23654539.00301
 96  9  9 21 47  0.0000000  0  6 01 09 05 21 23 17
  21133665.96209  -2768715.87209  -2157440.28004         0.00000  21133669.27704
  22148025.01108   3345704.82208   2607042.42703         0.00000  22148028.13803
  23920857.10704   -916808.12104   -714394.49801         0.00000  23920862.40101
  20312332.52509  -2529810.23909  -1971279.83205         0.00000  20312335.75605
  20920832.54409   1434715.35509   1117959.64704         0.00000  20920836.34804
  23665833.81205   6475447.61205   5045800.43801         0.00000  23665836.06201
 96  9  9 21 47 15.0000000  0  6 01 09 05 21 23 17
  21129816.44609  -2788948.65709  -2173206.05504         0.00000  21129819.53004
  22154890.77208   3381787.26908   2635158.63403         0.00000  22154895.01903
  23915362.43303   -945670.56703   -736884.65601         0.00000  23915372.12501
  20309013.63909  -2547247.49309  -1984867.28705         0.00000  20309016.78005
  20924189.63608   1452356.83408   1131706.24804         0.00000  20924193.49604
  23677137.88405   6534855.69805   5092092.48501         0.00000  23677144.30901
 96  9  9 21 47 30.0000000  0  6 01 05 09 21 23 17
  21125980.90309  -2809107.40109  -2188914.18904         0.00000  21125984.00904
  23909886.87303   -974452.37803   -759312.24601         0.00000  23909888.21301
  22161775.98007   3417973.87507   2663355.99203         0.00000  22161780.73503
  20305715.11109  -2564585.26009  -1998377.24904         0.00000  20305718.27004
  20927562.56008   1470080.71908   1145517.06304         0.00000  20927566.35304
  23688450.94105   6594295.73805   5138409.41301         0.00000  23688452.62701
 96  9  9 21 47 45.0000000  0  6 01 05 09 21 23 17
  21122158.11209  -2829195.45009  -2204567.18505         0.00000  21122162.17805
  23904423.21503  -1003155.97103   -781678.61401         0.00000  23904436.73301
  22168681.21307   3454260.77507   2691631.48303         0.00000  22168686.07003
  20302433.62709  -2581827.48109  -2011812.72705         0.00000  20302436.32405
  20930950.96909   1487883.08909   1159389.02304         0.00000  20930955.46504
  23699766.53005   6653761.45005   5184746.11701         0.00000  23699770.00201
 96  9  9 21 48  0.0000000  0  6 01 05 21 23 09 17
  21118349.51409  -2849209.19509  -2220162.31805         0.00000  21118353.54305
  23898979.62103  -1031774.86003   -803978.94301         0.00000  23898992.91501
  20299171.91909  -2598968.78409  -2025169.60005         0.00000  20299174.97705
  20934354.66009   1505772.55809   1173328.87204         0.00000  20934358.40904
  22175607.46807   3490653.40207   2719989.36503         0.00000  22175611.93703
  23711087.97005   6713255.73905   5231105.34101         0.00000  23711090.72101
 96  9  9 21 48 15.0000000  0  6 01 09 05 21 23 17
  21114553.66709  -2869158.07909  -2235706.87405         0.00000  21114557.84705
  22182551.06308   3527139.96408   2748420.43803         0.00000  22182554.39303
  23893550.59704  -1060316.46804   -826219.11801         0.00000  23893556.59501
  20295927.18409  -2616021.13009  -2038457.12105         0.00000  20295930.05405
  20937773.90008   1523742.90608   1187331.74004         0.00000  20937778.60404
  23722412.55705   6772767.07605   5277477.78702         0.00000  23722416.18102
 96  9  9 21 48 30.0000000  0  6 01 09 05 21 23 17
  21110768.32209  -2889053.19809  -2251209.54905         0.00000  21110772.09105
  22189510.59208   3563709.51908   2776916.20103         0.00000  22189514.44703
  23888130.45804  -1088789.56004   -848405.82001         0.00000  23888134.85201
  20292696.92209  -2632995.56209  -2051683.95005         0.00000  20292699.66305
  20941207.64209   1541783.17509   1201389.07804         0.00000  20941212.08904
  23733737.75305   6832286.64805   5323856.55901         0.00000  23733742.54401
 96  9  9 21 48 45.0000000  0  6 01 09 05 21 23 17
  21106995.58309  -2908882.14609  -2266660.68504         0.00000  21106998.81804
  22196486.67908   3600372.40808   2805484.63202         0.00000  22196489.79002
  23882727.74905  -1117184.01005   -870531.43101         0.00000  23882729.46501
  20289483.39009  -2649882.90909  -2064842.90405         0.00000  20289486.17305
  20944656.78809   1559905.46909   1215510.34204         0.00000  20944661.06804
  23745068.63105   6891827.65505   5370252.24301         0.00000  23745073.68301
 96  9  9 21 49  0.0000000  0  6 01 05 21 23 09 17
  21103234.35409  -2928644.78809  -2282060.12705         0.00000  21103237.57105
  23877336.56704  -1145500.57004   -892596.36101         0.00000  23877339.33101
  20286285.97809  -2666686.21509  -2077936.37905         0.00000  20286288.97905
  20948119.81809   1578106.57309   1229693.00405         0.00000  20948124.08005
  22203480.89908   3637126.30908   2834124.05203         0.00000  22203484.73703
  23756403.27005   6951387.13905   5416662.20701         0.00000  23756405.35401
 96  9  9 21 49 15.0000000  0  6 01 09 05 21 23 17
  21099485.90109  -2948340.93709  -2297407.77504         0.00000  21099489.02304
  22210492.52208   3673970.66908   2862833.91203         0.00000  22210495.22403
  23871963.28003  -1173737.20703   -914598.73001         0.00000  23871968.04801
  20283103.50909  -2683405.45309  -2090964.35105         0.00000  20283106.77905
  20951598.97109   1596387.03509   1243937.50804         0.00000  20951602.41804
  23767740.09705   7010964.58205   5463086.07301         0.00000  23767748.22501
 96  9  9 21 49 30.0000000  0  6 01 09 05 21 23 17
  21095751.86709  -2967962.59509  -2312697.34805         0.00000  21095755.06305
  22217522.04408   3710915.45008   2891622.07803         0.00000  22217525.70003
  23866608.80604  -1201883.60004   -936531.00001         0.00000  23866616.03901
  20279940.22109  -2700029.46209  -2103918.11905         0.00000  20279943.93505
  20955094.59509   1614760.03809   1258254.13204         0.00000  20955098.75304
  23779082.13505   7070569.61505   5509531.55201         0.00000  23779085.93701
 96  9  9 21 49 45.0000000  0  6 01 05 21 23 09 17
  21092029.75509  -2987520.28509  -2327937.10504         0.00000  21092032.77604
  23861269.52304  -1229948.49704   -958399.75601         0.00000  23861276.17501
  20276793.38109  -2716568.88109  -2116805.99605         0.00000  20276796.16305
  20958608.66609   1633220.92309   1272639.25004         0.00000  20958612.27204
  22224570.58608   3747953.04208   2920482.51203         0.00000  22224574.12603
  23790427.12204   7130193.19904   5555991.44001         0.00000  23790430.14801
 96  9  9 21 50  0.0000000  0  6 01 05 21 23 09 17
  21088320.84409  -3007013.41009  -2343126.54504         0.00000  21088324.06904
  23855941.06903  -1257930.56503   -980203.92601         0.00000  23855940.94101
  20273662.39409  -2733022.49009  -2129626.99105         0.00000  20273665.60605
  20962138.87209   1651777.06109   1287098.55804         0.00000  20962143.03204
  22231637.01508   3785085.97508   2949417.26303         0.00000  22231640.26903
  23801778.33405   7189840.26305   5602469.64001         0.00000  23801783.14801
 96  9  9 21 50 15.0000000  0  6 01 09 05 21 23 17
  21084624.26409  -3026434.13109  -2358259.57004         0.00000  21084627.59104
  22238722.81108   3822322.03808   2978432.34203         0.00000  22238727.87903
  23850635.37804  -1285822.83404  -1001938.06501         0.00000  23850637.22501
  20270549.03109  -2749382.73409  -2142375.23005         0.00000  20270551.96005
  20965690.96509   1670438.44609   1301639.91104         0.00000  20965694.13604
  23813136.22505   7249519.74205   5648973.03001         0.00000  23813140.39601
 96  9  9 21 50 30.0000000  0  6 01 09 05 21 23 17
  21080943.19409  -3045780.44909  -2373334.61304         0.00000  21080947.12604
  22245829.49608   3859664.00508   3007529.97503         0.00000  22245832.48303
  23845346.59804  -1313625.35504  -1023602.39701         0.00000  23845348.14001
  20267454.10609  -2765648.37609  -2155049.73905         0.00000  20267457.11005
  20969261.44209   1689204.07509   1316262.44504         0.00000  20969264.54904
  23824500.35205   7309235.22805   5695504.49601         0.00000  23824503.65701
 96  9  9 21 50 45.0000000  0  6 01 09 05 21 23 17
  21077276.62309  -3065055.98009  -2388354.51205         0.00000  21077279.69105
  22252955.32708   3897109.71608   3036708.46603         0.00000  22252957.88103
  23840072.36004  -1341342.12304  -1045199.80401         0.00000  23840069.66301
  20264375.80909  -2781822.64309  -2167653.06105         0.00000  20264379.16005
  20972850.96709   1708067.03609   1330960.82504         0.00000  20972854.15504
  23835869.84006   7368982.78606   5742061.01501         0.00000  23835877.71101
 96  9  9 21 51  0.0000000  0  6 01 09 21 05 23 17
  21073622.45409  -3084255.18309  -2403314.91705         0.00000  21073625.26505
  22260101.36108   3934666.46708   3065973.44703         0.00000  22260104.10603
  20261316.14609  -2797901.05809  -2180181.70306         0.00000  20261319.24806
  23834811.60803  -1368968.90303  -1066727.22201         0.00000  23834809.03301
  20976460.12509   1727032.31709   1345738.99104         0.00000  20976463.54604
  23847244.94406   7428764.36306   5788644.00802         0.00000  23847251.46702
 96  9  9 21 51 15.0000000  0  6 01 09 05 21 23 17
  21069984.59909  -3103373.96709  -2418212.67405         0.00000  21069987.47705
  22267271.50208   3972344.40808   3095332.87903         0.00000  22267275.12603
  23829573.51404  -1396497.20804  -1088177.74501         0.00000  23829579.12201
  20258277.11209  -2813872.79509  -2192627.20304         0.00000  20258280.33304
  20980089.60409   1746108.56309   1360603.57404         0.00000  20980093.36904
  23858628.34606   7488583.34706   5835256.20301         0.00000  23858635.94901
 96  9  9 21 51 30.0000000  0  6 01 05 21 23 09 17
  21066357.87209  -3122425.99009  -2433058.38905         0.00000  21066361.35805
  23824354.62004  -1423940.39504  -1109562.11701         0.00000  23824359.53201
  20255255.67809  -2829748.41109  -2204997.79305         0.00000  20255258.76505
  20983738.43008   1765286.81608   1375547.67604         0.00000  20983742.66004
  22274462.43708   4010134.18708   3124779.44503         0.00000  22274465.79203
  23870016.40606   7548427.84206   5881888.27201         0.00000  23870022.77001
 96  9  9 21 51 45.0000000  0  6 01 23 05 21 09 17
  21062746.34909  -3141406.83209  -2447848.65305         0.00000  21062750.81905
  20987407.49308   1784568.75908   1390572.54804         0.00000  20987411.82204
  23819143.48403  -1451295.87903  -1130878.09601         0.00000  23819144.76401
  20252253.91309  -2845525.38209  -2217291.54905         0.00000  20252256.42605
  22281675.28508   4048038.12308   3154314.93503         0.00000  22281679.00803
  23881408.46505   7608297.31305   5928539.71401         0.00000  23881418.96101
 96  9  9 21 52  0.0000000  0  6 01 05 21 23 09 17
  21059146.65709  -3160318.99409  -2462585.39305         0.00000  21059151.13005
  23813958.04903  -1478567.17303  -1152128.18801         0.00000  23813962.63101
  20249270.01509  -2861205.59509  -2229509.89205         0.00000  20249272.92605
  20991095.93809   1803948.00309   1405673.26404         0.00000  20991100.40104
  22288908.70708   4086049.96308   3183934.55603         0.00000  22288912.54603
  23892805.63705   7668188.26305   5975208.02801         0.00000  23892814.67701
 96  9  9 21 52 15.0000000  0  6 01 23 05 21 09 17
  21055559.58609  -3179165.56209  -2477271.00504         0.00000  21055564.11104
  20994801.32509   1823418.64709   1420845.18105         0.00000  20994805.09405
  23808782.94803  -1505757.42603  -1173315.45601         0.00000  23808785.21301
  20246304.69409  -2876789.98409  -2241653.57505         0.00000  20246307.36105
  22296161.33408   4124164.77308   3213634.41203         0.00000  22296165.30403
  23904205.46905   7728095.01105   6021888.44801         0.00000  23904211.85901
 96  9  9 21 52 30.0000000  0  5 01 05 21 23 09
  21051988.81709  -3197934.16609  -2491895.90204         0.00000  21051992.73704
  23803628.05203  -1532851.84103  -1194427.98801         0.00000  23803633.19801
  20243359.61709  -2892266.37409  -2253713.09605         0.00000  20243362.27405
  20998525.16109   1842988.86009   1436094.66904         0.00000  20998528.53104
  22303434.90008   4162391.70808   3243421.62203         0.00000  22303439.52103
 96  9  9 21 52 45.0000000  0  5 01 23 05 21 09
  21048427.81209  -3216652.03909  -2506481.23504         0.00000  21048431.55604
  21002262.35909   1862628.91909   1451398.58404         0.00000  21002266.27104
  23798484.46303  -1559876.06203  -1215485.82101         0.00000  23798487.82301
  20240429.46209  -2907661.77609  -2265709.51905         0.00000  20240432.70105
  22310724.70008   4200700.37608   3273272.52303         0.00000  22310729.10603
 96  9  9 21 53  0.0000000  0  5 01 23 05 21 09
  21044877.36909  -3235311.33609  -2521020.93105         0.00000  21044880.46605
  21006014.65709   1882346.43009   1466762.88004         0.00000  21006018.45404
  23793357.02703  -1586822.71503  -1236483.20301         0.00000  23793362.33701
  20237516.72809  -2922968.20309  -2277636.60805         0.00000  20237520.17305
  22318031.34508   4239096.43908   3303191.53103         0.00000  22318034.98703
 96  9  9 21 53 15.0000000  0  6 01 23 05 21 09 25
  21041337.55909  -3253910.34309  -2535513.66105         0.00000  21041340.55405
  21009782.59709   1902143.35509   1482189.05004         0.00000  21009786.14604
  23788242.81303  -1613690.38103  -1257419.07601         0.00000  23788255.37901
  20234621.77309  -2938183.89709  -2289492.99805         0.00000  20234624.89005
  22325354.67408   4277581.04808   3333179.51303         0.00000  22325357.95703
  24497955.32102    -43116.21002    -33596.09300         0.00000  24497953.03500
 96  9  9 21 53 30.0000000  0  5 01 05 21 23 09
  21037817.22509  -3272410.15409  -2549929.09104         0.00000  21037820.03604
  23783151.29402  -1640439.09002  -1278262.29001         0.00000  23783154.01701
  20231750.56309  -2953271.75009  -2301249.75905         0.00000  20231752.75905
  21013572.09309   1922057.53509   1497706.59504         0.00000  21013575.89904
  22332702.23808   4316189.52108   3363264.01903         0.00000  22332705.89103
 96  9  9 21 53 45.0000000  0  6 01 05 21 23 09 25
  21034312.65509  -3290827.76509  -2564280.49304         0.00000  21034315.12404
  23778082.61403  -1667088.82103  -1299028.23001         0.00000  23778087.05201
  20228899.64709  -2968254.38309  -2312924.52005         0.00000  20228901.72305
  21017378.49009   1942064.63909   1513296.53604         0.00000  21017382.41404
  22340068.06408   4354899.99608   3393428.03303         0.00000  22340070.72403
  24477449.38202     -7176.60002     -5592.30300         0.00000  24477439.11700
 96  9  9 21 54  0.0000000  0  5 01 23 05 21 09
  21030823.70209  -3309165.88309  -2578569.95004         0.00000  21030825.90004
  21021202.37709   1962157.59609   1528953.36404         0.00000  21021205.99904
  23773030.10203  -1693643.81103  -1319720.33501         0.00000  23773034.25101
  20226068.00609  -2983135.94909  -2324520.55805         0.00000  20226070.36005
  22347453.96708   4393704.75508   3423665.50503         0.00000  22347457.01203
 96  9  9 21 54 15.0000000  0  5 01 23 05 21 09
  21027348.56009  -3327425.65509  -2592798.34805         0.00000  21027350.78205
  21025041.92809   1982336.25709   1544676.99704         0.00000  21025046.35304
  23767992.12103  -1720104.91903  -1340339.36901         0.00000  23767999.84501
  20223255.44709  -2997915.93309  -2336037.41705         0.00000  20223257.92405
  22354856.90808   4432604.55208   3453977.03603         0.00000  22354860.46803
 96  9  9 21 54 30.0000000  0  5 01 05 21 23 09
  21023882.84509  -3345634.26309  -2606986.86905         0.00000  21023884.97905
  23762969.42002  -1746495.60102  -1360903.57200         0.00000  23762971.46500
  20220456.48509  -3012622.18209  -2347496.83306         0.00000  20220459.08406
  21028894.09609   2002575.02509   1560447.44204         0.00000  21028897.76504
  22362272.32008   4471573.74708   3484342.59703         0.00000  22362275.78603
 96  9  9 21 54 45.0000000  0  5 01 05 21 23 09
  21020434.65709  -3363759.58909  -2621110.49205         0.00000  21020437.11005
  23757972.89103  -1772783.20003  -1381387.42901         0.00000  23757972.02601
  20217677.27709  -3027223.47509  -2358874.46305         0.00000  20217680.53205
  21032763.71809   2022907.69309   1576291.09705         0.00000  21032767.09805
  22369706.36508   4510644.73008   3514787.51503         0.00000  22369709.37603
 96  9  9 21 55  0.0000000  0  5 01 23 05 21 09
  21017000.39409  -3381807.08709  -2635173.46505         0.00000  21017003.56405
  21036649.61309   2043329.23309   1592203.98004         0.00000  21036652.85304
  23752988.52303  -1798974.84503  -1401796.45001         0.00000  23752989.61001
  20214918.34609  -3041721.79209  -2370171.83805         0.00000  20214921.53105
  22377161.29908   4549814.26008   3545309.20603         0.00000  22377163.64803
 96  9  9 21 55 15.0000000  0  5 01 23 05 21 09
  21013578.92209  -3399782.83509  -2649180.54405         0.00000  21013582.03505
  21040551.61109   2063837.24309   1608184.25005         0.00000  21040555.54405
  23748018.90903  -1825076.45203  -1422135.31101         0.00000  23748024.06201
  20212177.64109  -3056122.47209  -2381393.14205         0.00000  20212181.70905
  22384633.46509   4589078.77709   3575904.93103         0.00000  22384634.42503
 96  9  9 21 55 30.0000000  0  5 01 05 21 23 09
  21010170.22209  -3417693.92109  -2663137.19805         0.00000  21010173.34405
  23743068.59803  -1851094.61303  -1442409.05501         0.00000  23743074.30301
  20209454.69309  -3070431.55909  -2392543.08804         0.00000  20209458.69704
  21044469.76809   2084426.74709   1624228.01804         0.00000  21044473.62804
  22392121.72608   4628430.26508   3606568.41403         0.00000  22392123.22003
 96  9  9 21 55 45.0000000  0  5 01 05 21 23 09
  21006775.16709  -3435538.37509  -2677041.96305         0.00000  21006778.55705
  23738130.84303  -1877029.64803  -1462618.31501         0.00000  23738134.08201
  20206750.28409  -3084645.25809  -2403618.70505         0.00000  20206753.89905
  21048402.96609   2105101.08909   1640337.89004         0.00000  21048407.07104
  22399626.71008   4667869.21708   3637300.08302         0.00000  22399628.45602
 96  9  9 21 56  0.0000000  0  5 01 23 05 21 09
  21003391.84709  -3453316.51509  -2690895.08305         0.00000  21003395.23605
  21052354.39609   2125863.72309   1656516.57304         0.00000  21052358.31604
  23733214.12503  -1902881.51403  -1482762.65801         0.00000  23733216.64701
  20204064.32609  -3098760.29109  -2414617.42405         0.00000  20204067.54605
  22407147.72208   4707395.31408   3668099.59102         0.00000  22407149.02302
 96  9  9 21 56 15.0000000  0  5 01 23 05 21 09
  21000019.63009  -3471038.25809  -2704704.21004         0.00000  21000022.78904
  21056321.91509   2146713.84809   1672763.41704         0.00000  21056326.48804
  23728307.30803  -1928656.54003  -1502847.08301         0.00000  23728315.53101
  20201395.59209  -3112783.22209  -2425544.39305         0.00000  20201398.73405
  22414684.00207   4747000.64607   3698960.91503         0.00000  22414685.86503
 96  9  9 21 56 30.0000000  0  5 01 05 21 23 09
  20996656.32009  -3488706.95909  -2718472.01805         0.00000  20996659.95505
  23723413.57102  -1954351.74802  -1522869.28501         0.00000  23723419.29301
  20198744.66309  -3126716.93209  -2436401.81205         0.00000  20198748.06005
  21060306.81109   2167652.20809   1689078.98904         0.00000  21060310.95204
  22422236.02307   4786687.27407   3729885.52802         0.00000  22422238.08202
 96  9  9 21 56 45.0000000  0  5 01 05 21 23 09
  20993307.75009  -3506302.97009  -2732183.18205         0.00000  20993310.85305
  23718545.41303  -1979947.82703  -1542814.16301         0.00000  23718549.86501
  20196114.37009  -3140542.18409  -2447174.72805         0.00000  20196117.58805
  21064311.73409   2188697.26709   1705477.76704         0.00000  21064315.74604
  22429805.85107   4826474.29207   3760888.39702         0.00000  22429810.20902
 96  9  9 21 57  0.0000000  0  5 01 23 05 21 09
  20989973.79309  -3523829.17909  -2745839.97205         0.00000  20989977.50305
  21068335.99909   2209844.03609   1721955.74004         0.00000  21068339.38704
  23713692.64203  -2005449.72203  -1562685.86901         0.00000  23713697.72201
  20193503.74709  -3154261.05109  -2457864.75605         0.00000  20193506.79905
  22437395.90307   4866358.50807   3791966.97502         0.00000  22437399.85402
 96  9  9 21 57 15.0000000  0  5 01 23 05 21 09
  20986650.77809  -3541289.11409  -2759445.11605         0.00000  20986654.21805
  21072379.10509   2231091.80209   1738512.42404         0.00000  21072383.04504
  23708857.16202  -2030857.12102  -1582483.72201         0.00000  23708869.48801
  20190912.79509  -3167873.91709  -2468472.17806         0.00000  20190916.10806
  22445004.40307   4906338.64607   3823120.33102         0.00000  22445007.91302
 96  9  9 21 57 30.0000000  0  5 23 05 01 21 09
  21076443.11909   2252448.81709   1755154.23104         0.00000  21076446.84504
  23704040.80802  -2056161.19802  -1602201.09101         0.00000  23704048.36101
  20983342.44109  -3558674.85109  -2772992.43105         0.00000  20983346.60205
  20188343.92409  -3181373.44609  -2478991.29706         0.00000  20188348.07206
  22452631.91907   4946422.28907   3854354.30103         0.00000  22452636.13803
 96  9  9 21 57 45.0000000  0  6 23 25 01 21 05 09
  21080526.74809   2273909.49209   1771876.83804         0.00000  21080529.88004
  24314035.80402    -17819.49202    -13884.80601         0.00000  24314028.73701
  20980047.22309  -3575990.96609  -2786485.51104         0.00000  20980050.37204
  20185795.29609  -3194765.52909  -2489426.68106         0.00000  20185798.74306
  23699248.62603  -2081363.49803  -1621839.43401         0.00000  23699263.84701
  22460278.75407   4986605.00807   3885665.51202         0.00000  22460282.00502
 96  9  9 21 58  0.0000000  0  5 23 09 05 01 21
  21084631.01309   2295477.62309   1788683.17604         0.00000  21084635.01804
  22467945.20407   5026891.84807   3917057.81803         0.00000  22467949.06203
  23694474.64303  -2106455.87703  -1641391.90001         0.00000  23694483.33401
  20976766.01609  -3593235.08309  -2799922.49304         0.00000  20976769.08704
  20183268.39109  -3208045.19009  -2499774.47106         0.00000  20183271.60806
 96  9  9 21 58 15.0000000  0  6 23 09 25 01 21 05
  21088756.53009   2317154.92309   1805574.56204         0.00000  21088760.00804
  22475631.50307   5067284.82207   3948532.85202         0.00000  22475635.38902
  24293705.48902     -7116.74202     -5543.33300         0.00000  24293690.36500
  20973499.23109  -3610404.37709  -2813301.14304         0.00000  20973501.58304
  20180763.21309  -3221210.51809  -2510033.15905         0.00000  20180766.52905
  23689719.76403  -2131433.22003  -1660854.68101         0.00000  23689723.86201
 96  9  9 21 58 30.0000000  0  6 23 25 01 21 05 09
  21092899.58009   2338926.89409   1822539.75603         0.00000  21092902.77003
  24283552.57502    -60476.68402    -47123.31301         0.00000  24283548.56601
  20970244.45309  -3627508.26609  -2826628.85105         0.00000  20970246.16805
  20178277.80809  -3234273.48309  -2520212.10405         0.00000  20178280.95405
  23684987.69303  -2156304.32203  -1680234.58801         0.00000  23684993.31001
  22483335.02107   5107773.76807   3980082.69902         0.00000  22483338.02402
 96  9  9 21 58 45.0000000  0  6 23 09 25 01 21 05
  21097060.08809   2360794.45109   1839579.39604         0.00000  21097063.61404
  22491059.50507   5148365.05407   4011712.21702         0.00000  22491063.94102
  24273405.56002   -113805.72402    -88678.38100         0.00000  24273392.00500
  20967004.06809  -3644537.52709  -2839898.39205         0.00000  20967007.26105
  20175811.74009  -3247225.80809  -2530304.82805         0.00000  20175815.64505
  23680277.23104  -2181063.61404  -1699527.63101         0.00000  23680281.90701
 96  9  9 21 59  0.0000000  0  6 23 25 21 01 05 09
  21101241.42709   2382765.34009   1856699.52803         0.00000  21101245.10303
  24263261.86002   -167097.81802   -130205.32201         0.00000  24263271.63101
  20173370.43009  -3260056.82109  -2540303.02605         0.00000  20173374.63605
  20963779.27209  -3661483.26809  -2853102.86105         0.00000  20963782.46805
  23675588.32803  -2205704.52903  -1718728.30901         0.00000  23675589.18901
  22498804.95207   5189063.89407   4043425.53502         0.00000  22498808.83002
 96  9  9 21 59 15.0000000  0  6 23 09 25 01 21 05
  21105443.98609   2404849.37709   1873907.89804         0.00000  21105447.86404
  22506570.43607   5229875.53907   4075226.84602         0.00000  22506573.48802
  24253130.63802   -220348.17502   -171699.66400         0.00000  24253119.01700
  20960571.30109  -3678339.81009  -2866237.82505         0.00000  20960574.91605
  20170953.62509  -3272757.04309  -2550199.30305         0.00000  20170957.57605
  23670923.20103  -2230218.13503  -1737829.95401         0.00000  23670929.49401
 96  9  9 21 59 30.0000000  0  6 23 05 25 01 21 09
  21109667.72909   2427046.95609   1891204.70004         0.00000  21109672.24404
  23666282.29103  -2254608.05603  -1756834.92901         0.00000  23666285.85601
  24243004.44302   -273558.10102   -213161.24800         0.00000  24242992.34200
  20957381.11209  -3695104.72309  -2879301.38905         0.00000  20957385.84105
  20168561.18309  -3285328.87809  -2559995.54605         0.00000  20168565.31805
  22514358.88408   5270797.46608   4107114.06602         0.00000  22514361.77202
 96  9  9 21 59 45.0000000  0  6 23 25 21 01 05 09
  21113904.69709   2449311.60509   1908553.78604         0.00000  21113908.81704
  24232878.32202   -326772.14002   -254626.30001         0.00000  24232873.78401
  20166184.63609  -3297818.54109  -2569727.76205         0.00000  20166188.26905
  20954200.73609  -3711819.77209  -2892326.10605         0.00000  20954205.08305
  23661655.21403  -2278918.30003  -1775778.03201         0.00000  23661662.06601
  22522159.71408   5311784.99708   4139052.41402         0.00000  22522160.50002
 96  9  9 22  0  0.0000000  0  6 23 25 21 01 05 09
  21118157.71709   2471660.65909   1925968.61204         0.00000  21118161.57004
  24222753.33402    -31921.70702    -24873.98901         0.00000  24222748.57801
  20163827.04409  -3310209.62009  -2579383.13905         0.00000  20163830.87805
  20951033.05909  -3728466.27809  -2905297.38905         0.00000  20951036.81705
  23657047.97603  -2303129.77703  -1794643.95401         0.00000  23657050.47201
  22529974.57408   5352854.75508   4171054.78202         0.00000  22529977.35802
 96  9  9 22  0 15.0000000  0  6 23 09 25 01 21 05
  21122426.13109   2494091.92809   1943447.52804         0.00000  21122429.67504
  22537806.00308   5394006.14708   4203120.81703         0.00000  22537808.21903
  24212635.14902    -85112.73202    -66321.70101         0.00000  24212664.71601
  20947878.41309  -3745043.55109  -2918214.75106         0.00000  20947881.64306
  20161487.48609  -3322502.38009  -2588961.92105         0.00000  20161491.49805
  23652459.19803  -2327247.39003  -1813436.94801         0.00000  23652466.43001
 96  9  9 22  0 30.0000000  0  6 23 05 25 01 21 09
  21126713.06108   2516621.98808   1961003.41603         0.00000  21126717.75203
  23647890.69303  -2351252.91203  -1832142.62801         0.00000  23647892.82601
  24202517.61202     -7086.50902     -5522.33200         0.00000  24202500.41400
  20944740.52909  -3761528.73709  -2931060.34705         0.00000  20944743.71605
  20159170.43109  -3334680.52309  -2598451.37306         0.00000  20159174.46806
  22545655.95008   5435261.24608   4235267.65902         0.00000  22545657.44702
 96  9  9 22  0 45.0000000  0  6 23 25 05 01 21 09
  21131015.01808   2539228.63708   1978618.98604         0.00000  21131019.17504
  24192405.88502    -60228.52402    -46931.27101         0.00000  24192398.24401
  23643340.84304  -2375166.36104  -1850776.41601         0.00000  23643347.27501
  20941617.68109  -3777943.09009  -2943850.76105         0.00000  20941620.84905
  20156870.53009  -3346764.09409  -2607867.14205         0.00000  20156874.47705
  22553522.70507   5476602.47607   4267481.60402         0.00000  22553526.57102
 96  9  9 22  1  0.0000000  0  6 23 25 21 01 05 09
  21135332.38209   2561913.85209   1996295.76004         0.00000  21135335.80104
  24182297.81402   -113350.68702    -88325.60201         0.00000  24182304.37101
  20154590.13109  -3358751.10009  -2617207.65505         0.00000  20154593.61705
  20938506.97609  -3794288.96809  -2956587.80605         0.00000  20938510.03405
  23638805.20303  -2398990.70503  -1869340.83801         0.00000  23638808.82501
  22561405.33807   5518028.31507   4299761.44902         0.00000  22561408.77902
 96  9  9 22  1 15.0000000  0  6 23 25 05 01 21 09
  21139666.04109   2584685.91909   2014040.19904         0.00000  21139669.87104
  24172195.01202   -166445.01802   -129697.29301         0.00000  24172204.52101
  23634288.04503  -2422720.18003  -1887831.36701         0.00000  23634292.27601
  20935410.27209  -3810562.69109  -2969268.62405         0.00000  20935413.06105
  20152327.77409  -3370637.76609  -2626470.00006         0.00000  20152331.06506
  22569304.13407   5559542.67307   4332110.32202         0.00000  22569308.22702
 96  9  9 22  1 30.0000000  0  5 23 09 05 01 21
  21144012.58209   2607526.37509   2031837.96204         0.00000  21144015.77704
  22577218.47506   5601130.25806   4364516.22302         0.00000  22577221.56502
  23629787.54103  -2446372.90003  -1906261.94201         0.00000  23629791.82101
  20932324.34209  -3826778.36509  -2981904.21105         0.00000  20932326.73905
  20150081.16509  -3382442.87809  -2635668.79005         0.00000  20150085.23605
 96  9  9 22  1 45.0000000  0  5 23 09 05 21 01
  21148373.96509   2630445.30909   2049696.85903         0.00000  21148377.17503
  22585148.90106   5642803.65506   4396988.99002         0.00000  22585153.28902
  23625306.44304  -2469935.46804  -1924622.50001         0.00000  23625313.13401
  20147852.88509  -3394156.36909  -2644796.18305         0.00000  20147856.65505
  20929251.06609  -3842924.25909  -2994485.44905         0.00000  20929253.70205
 96  9  9 22  2  0.0000000  0  5 23 05 01 21 09
  21152748.52909   2653434.54409   2067610.57004         0.00000  21152752.56504
  23620837.47103  -2493414.04603  -1942917.49901         0.00000  23620840.21901
  20926190.48409  -3859010.36009  -3007020.03705         0.00000  20926193.66205
  20145639.41209  -3405786.40209  -2653858.54606         0.00000  20145642.64906
  22593092.29205   5684554.77805   4429522.33002         0.00000  22593095.23002
 96  9  9 22  2 15.0000000  0  5 23 05 21 01 09
  21157134.20609   2676484.32209   2085571.43404         0.00000  21157138.34404
  23616383.86004  -2516819.94104  -1961155.78601         0.00000  23616386.95401
  20143440.64309  -3417340.53909  -2662861.77305         0.00000  20143444.00605
  20923138.63909  -3875047.81309  -3019516.76405         0.00000  20923141.90505
  22601050.74606   5726371.29106   4462106.52602         0.00000  22601053.71802
 96  9  9 22  2 30.0000000  0  5 23 09 05 01 21
  21161532.28909   2699593.71009   2103578.73104         0.00000  21161535.64804
  22609020.79006   5768249.87506   4494739.23601         0.00000  22609023.79001
  23611944.20704  -2540155.44804  -1979339.28301         0.00000  23611946.29001
  20920095.02409  -3891039.76909  -3031978.01405         0.00000  20920098.42605
  20141256.19309  -3428818.48209  -2671805.63105         0.00000  20141259.68405
 96  9  9 22  2 45.0000000  0  5 23 09 05 21 01
  21165944.54309   2722780.30009   2121646.20004         0.00000  21165947.73704
  22617004.20506   5810202.11306   4527429.24702         0.00000  22617005.58302
  23607520.56204  -2563402.77904  -1997454.14702         0.00000  23607523.27702
  20139090.06209  -3440200.99909  -2680675.11305         0.00000  20139094.15005
  20917063.67609  -3906972.63609  -3044393.23405         0.00000  20917067.24705
 96  9  9 22  3  0.0000000  0  5 23 05 01 21 09
  21170373.84109   2746052.24509   2139780.18504         0.00000  21170377.71404
  23603111.69003  -2586559.86503  -2015498.61701         0.00000  23603115.87701
  20914042.86109  -3922843.47809  -3056760.11205         0.00000  20914046.94105
  20136943.36609  -3451481.51909  -2689465.15005         0.00000  20136947.69905
  22625001.77706   5852227.48306   4560176.24202         0.00000  22625003.99602
 96  9  9 22  3 15.0000000  0  5 23 05 21 01 09
  21174819.74409   2769416.78209   2157986.28704         0.00000  21174823.60504
  23598722.78103  -2609622.91303  -2033469.71501         0.00000  23598727.79301
  20134816.85909  -3462658.06009  -2698174.12906         0.00000  20134820.70906
  20911035.83409  -3938647.50409  -3069074.93405         0.00000  20911039.32705
  22633012.94506   5894326.19906   4592980.40802         0.00000  22633016.12702
 96  9  9 22  3 30.0000000  0  5 23 09 05 01 21
  21179281.76309   2792866.31209   2176258.66404         0.00000  21179284.87704
  22641036.96106   5936493.83406   4625838.34402         0.00000  22641040.81802
  23594350.75403  -2632596.09503  -2051370.94901         0.00000  23594352.81701
  20908041.25009  -3954388.62809  -3081340.73705         0.00000  20908044.88405
  20132708.44009  -3473737.56809  -2706807.51205         0.00000  20132711.75305
 96  9  9 22  3 45.0000000  0  5 23 09 05 21 01
  21183760.74609   2816405.25009   2194600.67304         0.00000  21183764.61804
  22649075.14907   5978732.20507   4658751.32403         0.00000  22649078.16103
  23589995.46503  -2655474.38403  -2069198.09801         0.00000  23590000.80801
  20130619.40809  -3484715.77209  -2715361.96805         0.00000  20130623.05705
  20905058.24309  -3970064.72109  -3093555.87305         0.00000  20905061.79005
 96  9  9 22  4  0.0000000  0  5 23 05 01 21 09
  21188259.42809   2840043.35709   2213019.96403         0.00000  21188262.41203
  23585662.25503  -2678249.62503  -2086945.02001         0.00000  23585664.93201
  20902088.15609  -3985672.04309  -3105717.41905         0.00000  20902091.60205
  20128551.34909  -3495584.22009  -2723830.88605         0.00000  20128555.20405
  22657127.10007   6021049.45507   4691725.73802         0.00000  22657130.39402
 96  9  9 22  4 15.0000000  0  5 23 05 21 01 09
  21192774.73408   2863775.92808   2231512.85204         0.00000  21192778.47404
  23581348.60003  -2700927.88503  -2104616.46101         0.00000  23581352.84201
  20126503.42609  -3506346.05709  -2732216.71505         0.00000  20126506.60205
  20899129.04609  -4001217.82409  -3117831.01205         0.00000  20899132.92905
  22665193.74607   6063440.75307   4724757.96603         0.00000  22665198.54303
 96  9  9 22  4 30.0000000  0  5 23 09 05 01 21
  21197311.07408   2887613.98308   2250087.96304         0.00000  21197314.96904
  22673277.97807   6105916.06407   4757855.58202         0.00000  22673281.87902
  23577052.82203  -2723498.50503  -2122204.07701         0.00000  23577057.37101
  20896184.06909  -4016693.45909  -3129889.94805         0.00000  20896187.40805
  20124478.13509  -3516991.10309  -2740511.56805         0.00000  20124481.23705
 96  9  9 22  4 45.0000000  0  5 23 09 05 21 01
  21201866.87609   2911553.41909   2268742.05504         0.00000  21201870.24104
  22681375.21307   6148471.11707   4791015.33702         0.00000  22681378.37802
  23572778.72403  -2745967.99403  -2139712.63001         0.00000  23572782.55501
  20122473.61309  -3527526.07309  -2748720.63106         0.00000  20122476.77706
  20893252.11309  -4032105.10609  -3141899.02005         0.00000  20893255.38005
 96  9  9 22  5  0.0000000  0  5 23 05 01 21 09
  21206441.66509   2935594.87609   2287475.64204         0.00000  21206445.03204
  23568519.06303  -2768335.94203  -2157142.14601         0.00000  23568522.29601
  20890331.87009  -4047452.32109  -3153857.89705         0.00000  20890334.86805
  20120489.03409  -3537953.00809  -2756845.50006         0.00000  20120492.23006
  22689487.94007   6191105.75407   4824237.06102         0.00000  22689491.02602
 96  9  9 22  5 15.0000000  0  5 23 05 21 01 09
  21211037.96409   2959743.42609   2306292.70404         0.00000  21211040.63804
  23564284.70203  -2790596.03803  -2174487.78801         0.00000  23564288.99701
  20118526.25809  -3548269.36009  -2764884.22506         0.00000  20118529.30106
  20887424.44309  -4062730.55309  -3165762.99804         0.00000  20887427.77304
  22697618.47908   6233827.95808   4857527.11203         0.00000  22697621.57003
 96  9  9 22  5 30.0000000  0  5 23 09 05 01 21
  21215655.32209   2984008.97209   2325200.92704         0.00000  21215657.72104
  22705768.10407   6276655.27307   4890899.04002         0.00000  22705771.10902
  23560071.78503  -2812731.13403  -2191735.91001         0.00000  23560078.00401
  20884530.61209  -4077927.61209  -3177604.83305         0.00000  20884535.05905
  20116587.34809  -3558459.64509  -2772824.70106         0.00000  20116589.88006
 96  9  9 22  5 45.0000000  0  5 23 09 05 21 01
  21220292.58909   3008380.84509   2344191.95104         0.00000  21220295.68204
  22713936.47407   6319579.39507   4924346.40502         0.00000  22713939.36002
  23555882.31703  -2834749.40803  -2208892.95601         0.00000  23555886.24301
  20114670.58709  -3568531.86409  -2780673.19806         0.00000  20114673.58806
  20881652.61709  -4093052.54909  -3189390.50105         0.00000  20881657.39205
 96  9  9 22  6  0.0000000  0  5 23 05 01 21 09
  21224953.65709   3032875.38309   2363278.61603         0.00000  21224957.58403
  23551721.02203  -2856634.74403  -2225946.35201         0.00000  23551726.05101
  20878791.85809  -4108089.73809  -3201107.77904         0.00000  20878795.97104
  20112779.45009  -3578470.79309  -2788417.81706         0.00000  20112782.37106
  22722126.16607   6362618.12207   4957883.06802         0.00000  22722128.56802
 96  9  9 22  6 15.0000000  0  5 23 05 21 01 09
  21229640.34509   3057503.36009   2382469.25604         0.00000  21229643.91704
  23547587.36804  -2878374.29404  -2242886.10101         0.00000  23547589.92601
  20110915.53309  -3588262.54509  -2796047.73506         0.00000  20110918.67706
  20875950.72709  -4123022.75409  -3212743.89805         0.00000  20875955.84705
  22730340.16807   6405786.71607   4991520.95402         0.00000  22730344.74302
 96  9  9 22  6 30.0000000  0  5 23 09 05 01 21
  21234346.24009   3082235.68109   2401741.17504         0.00000  21234349.18504
  22738572.89707   6449052.17907   5025234.19702         0.00000  22738575.96202
  23543468.47903  -2899998.74103  -2259736.54601         0.00000  23543470.85201
  20873124.43809  -4137876.99209  -3224318.62105         0.00000  20873128.77305
  20109074.17009  -3597937.61809  -2803586.74406         0.00000  20109077.34806
 96  9  9 22  6 45.0000000  0  5 23 09 05 21 01
  21239069.73409   3107056.29809   2421081.91903         0.00000  21239073.32103
  22746821.63907   6492399.59007   5059011.44902         0.00000  22746826.45902
  23539370.27403  -2921523.54403  -2276509.15901         0.00000  23539371.48801
  20107252.73609  -3607509.90809  -2811045.67305         0.00000  20107256.55005
  20870310.40709  -4152663.55909  -3235840.58505         0.00000  20870313.80005
 96  9  9 22  7  0.0000000  0  5 23 05 01 21 09
  21243807.57508   3131955.74308   2440484.06404         0.00000  21243810.98704
  23535294.82403  -2942953.80303  -2293207.91001         0.00000  23535299.72701
  20867508.70309  -4167387.59309  -3247313.86205         0.00000  20867511.82605
  20105449.75409  -3616984.49509  -2818428.47905         0.00000  20105453.53805
  22755084.90407   6535821.27907   5092846.52502         0.00000  22755089.28402
 96  9  9 22  7 15.0000000  0  5 23 05 21 01 09
  21248559.66809   3156924.39709   2459940.15103         0.00000  21248563.01403
  23531233.12503  -2964294.46203  -2309837.09501         0.00000  23531236.97101
  20103663.74309  -3626368.85409  -2825740.96405         0.00000  20103666.89105
  20864717.08909  -4182055.61909  -3258743.50205         0.00000  20864720.32405
  22763361.69907   6579311.36907   5126734.89302         0.00000  22763364.22902
 96  9  9 22  7 30.0000000  0  5 23 09 05 01 21
  21253325.86609   3181971.77409   2479457.55404         0.00000  21253329.21004
  22771652.84807   6622882.69207   5160686.61902         0.00000  22771655.75902
  23527192.22203  -2985532.11003  -2326385.85801         0.00000  23527195.87501
  20861939.18709  -4196655.84109  -3270120.31305         0.00000  20861942.27905
  20101898.01809  -3635650.85709  -2832973.68705         0.00000  20101901.14805
 96  9  9 22  7 45.0000000  0  5 23 09 05 21 01
  21258108.23109   3207102.58409   2499040.01904         0.00000  21258111.46704
  22779959.84007   6666535.08407   5194701.41402         0.00000  22779962.56302
