     2              OBSERVATION DATA    GPS                 RINEX VERSION / TYPE
BIN2RINW                                97 09 25 17 22 40   PGM / RUN BY / DATE 
TOPCON-GEOCOMP RINEX Formatter-Version: 97.08.01            COMMENT             
                                                            COMMENT             
0005                                                        MARKER NAME         
                                                            OBSERVER / AGENCY   
                    Z-XII3              1C00                REC # / TYPE / VERS 
                    Precise Geodetic                        ANT # / TYPE        
  3435448.0100   607781.4500  5321610.0900                  APPROX POSITION XYZ 
LATN  56 55 39.92146   LONE  10 01 57.56998    114.425(m)   COMMENT             
LATN  56 55 39.92146   LONW 349 58 02.43002    114.425(m)   COMMENT             
        1.2942        0.0000        0.0000                  ANTENNA: DELTA H/E/N
| Original slant height(m) :    1.3525   |      _______     COMMENT             
| Offsets used to calculate slant height |     /  GPS  \    COMMENT             
| Antenna Radius (m):           0.1737   |    | ANTENNA |   COMMENT             
| Antenna Vertical Offset (m):  0.0471   |    |_________|   COMMENT             
HEIGHT CALCULATED TO THIS POINT  (ARP*)_______\ |_____|     COMMENT             
*ARP - Antenna Reference Point                /    ^        COMMENT             
     1     1                                                WAVELENGTH FACT L1/2
     5    C1    L1    L2    P1    P2                        # / TYPES OF OBSERV 
  1994     3    17     9    43   20.000000                  TIME OF FIRST OBS   
                                                            END OF HEADER       
                            3  4                                                
0005                                                        MARKER NAME         
  3435448.0100   607781.4500  5321610.0900                  APPROX POSITION XYZ 
LATN  56 55 39.92146   LONE  10 01 57.56998    114.425(m)   COMMENT             
LATN  56 55 39.92146   LONW 349 58 02.43002    114.425(m)   COMMENT             
        1.2942        0.0000        0.0000                  ANTENNA: DELTA H/E/N
        --> THIS IS A START OF A NEW SITE <--               COMMENT             
                 --> MODE: STATIC <--                       COMMENT             
 94  3 17  9 43 20.0000000  0  8 27 02 31 23 09 17 16 26             0.000724150
  22276090.93109  19243010.99809  14979484.74907  22276092.10409  22276099.05307
  21445583.16209  18848767.95509  14691036.54308  21445584.20409  21445590.99908
  24433603.25509  19076258.34909  14855629.65806  24433606.03409  24433613.01806
  24367003.98609  18658675.65009  14550374.51006  24367004.88309  24367010.78406
  24470218.44608  18621728.40108  14524433.00306  24470223.78508  24470231.22106
  24545627.32808  19182001.17808  14932392.73905  24545624.53308  24545631.78405
  23015434.17509  19283315.85809  15006060.32207  23015435.68009  23015443.46507
  21014807.96609  18839819.82809  14686094.82508  21014808.55309  21014813.98408
 94  3 17  9 43 40.0000000  0  8 27 02 31 23 09 17 16 26             0.000729659
  22288869.42609  19310158.68509  15031807.59107  22288870.16009  22288876.99907
  21443600.97009  18838349.48909  14682918.25708  21443601.71109  21443608.28808
  24440043.03809  19110091.93009  14881993.50406  24440044.23109  24440050.98306
  24357569.12908  18609109.45408  14511751.49706  24357572.25508  24357579.41306
  24458680.08408  18561061.34908  14477160.02806  24458679.35208  24458686.36506
  24555999.72808  19236506.04508  14974864.02306  24555997.65508  24556004.22806
  23029592.47809  19357720.98809  15064038.28307  23029594.42309  23029602.83507
  21012267.06109  18826471.15409  14675693.25508  21012268.51109  21012273.98108
 94  3 17  9 44  0.0000000  0  8 27 02 31 23 09 17 16 26             0.000735072
  22301640.54209  19377272.63909  15084104.15107  22301641.29109  22301648.32507
  21441634.22309  18828015.99909  14674866.19008  21441635.18409  21441641.98708
  24446498.81309  19144023.44409  14908433.64006  24446500.51509  24446506.67906
  24348136.62709  18559536.45709  14473123.20906  24348138.61609  24348145.86906
  24447113.27708  18500298.11308  14429812.08206  24447116.66408  24447123.95206
  24566373.02008  19291045.04608  15017361.94505  24566375.45408  24566382.20405
  23043750.43909  19432103.13709  15121998.32607  23043749.34509  23043756.95707
  21009734.87609  18813162.74209  14665323.05908  21009736.24109  21009741.57708
 94  3 17  9 44 20.0000000  0  8 27 02 31 23 09 17 16 26             0.000740435
  22314420.70509  19444436.77709  15136439.80207  22314422.03209  22314429.14807
  21439700.13709  18817849.82009  14666944.49408  21439700.78309  21439707.42508
  24452992.76709  19178131.75709  14935011.56506  24452992.55309  24452999.20406
  24338719.39109  18510047.79609  14434560.62606  24338721.95509  24338728.20106
  24435553.45308  18439517.01908  14382450.22805  24435550.37608  24435557.39905
  24576773.26108  19345697.47008  15059948.23506  24576775.31008  24576782.38706
  23057910.67609  19506544.68109  15180004.65407  23057915.47809  23057922.87007
  21007226.74209  18799980.50809  14655051.17708  21007227.64509  21007233.07408
 94  3 17  9 44 40.0000000  0  8 27 02 31 23 09 17 16 26             0.000745733
  22327205.47609  19511622.55809  15188792.33107  22327207.75609  22327214.15207
  21437793.90209  18807832.39909  14659138.72108  21437794.71909  21437801.21008
  24459508.50009  19212391.98609  14961707.81506  24459509.94509  24459517.14606
  24329315.78608  18460627.65908  14396051.44806  24329317.48508  24329324.14606
  24423975.08208  18378693.37508  14335055.22706  24423976.26508  24423982.69706
  24587190.80208  19400444.35408  15102608.12606  24587193.50008  24587200.58706
  23072087.73709  19581022.14809  15238038.98707  23072087.50609  23072095.93007
  21004738.37709  18786901.80309  14644859.98308  21004738.75109  21004744.13908
 94  3 17  9 45  0.0000000  0  8 27 02 31 23 09 17 16 26             0.000750972
  22339998.30109  19578841.30209  15241170.53107  22339998.77709  22340005.97607
  21435918.20509  18797976.35909  14651458.70008  21435918.85909  21435925.66808
  24466060.65509  19246815.29709  14988531.17906  24466062.88209  24466066.75106
  24319931.33009  18411284.64609  14357602.34806  24319928.03809  24319934.37906
  24412395.65908  18317828.12108  14287627.77306  24412394.05308  24412401.05606
  24597635.24908  19455307.90908  15145358.93905  24597633.86508  24597639.80205
  23086267.77409  19655540.27309  15296104.98607  23086268.47009  23086276.22807
  21002273.14509  18773944.31509  14634763.23208  21002273.08609  21002278.46008
 94  3 17  9 45 20.0000000  0  8 27 02 31 23 09 17 16 26             0.000756165
  22352800.86809  19646118.84109  15293594.55307  22352800.98709  22352808.20807
  21434077.17509  18788303.91609  14643921.73608  21434078.03909  21434085.03708
  24472649.16909  19281429.71809  15015503.46406  24472648.08209  24472655.69006
  24310557.31908  18362040.98608  14319230.66706  24310556.97908  24310564.14606
  24400809.04608  18256944.98708  14240186.41006  24400807.79808  24400815.46906
  24608092.71108  19510319.65408  15188225.21305  24608102.12308  24608108.28805
  23100458.27209  19730118.09909  15354217.51307  23100459.72209  23100467.66907
  20999834.20509  18761133.75809  14624780.97608  20999835.28709  20999840.77708
 94  3 17  9 45 40.0000000  0  8 27 02 31 23 09 17 16 26             0.000761323
  22365619.73409  19713475.48009  15346080.20707  22365618.97309  22365625.90907
  21432274.33309  18778830.17709  14636539.60508  21432275.42909  21432282.57808
  24479275.19709  19316256.85709  15042641.46206  24479276.53809  24479282.38006
  24301210.81909  18312917.31909  14280952.50106  24301208.97309  24301216.05506
  24389219.79308  18196062.45008  14192745.51806  24389222.08908  24389229.54606
  24618601.03308  19565490.14808  15231215.20705  24618600.66208  24618606.63305
  23114663.76209  19804774.40009  15412391.18507  23114666.46509  23114674.42607
  20997427.01609  18748488.45309  14614927.49108  20997428.87409  20997434.50908
 94  3 17  9 46  0.0000000  0  8 27 02 31 23 09 17 16 26             0.000766456
  22378452.29809  19780923.40609  15398636.99507  22378453.87509  22378460.73107
  21430511.70409  18769561.86109  14629317.54308  21430512.00509  21430518.77608
  24485940.41608  19351303.24108  15069950.38806  24485943.43008  24485951.45006
  24291884.90109  18263917.55109  14242770.88206  24291885.08709  24291891.03906
  24377633.11708  18135182.61708  14145306.71406  24377637.51108  24377645.41506
  24629131.04808  19620813.82708  15274324.53805  24629128.82108  24629135.45705
  23128889.70509  19879522.18809  15470636.14707  23128891.20609  23128898.31807
  20995053.53409  18736010.83209  14605204.66908  20995054.55009  20995060.17608
 94  3 17  9 46 20.0000000  0  8 27 02 31 23 09 17 16 26             0.000771562
  22391304.02009  19848454.74409  15451258.77407  22391304.42609  22391311.75307
  21428784.66709  18760488.45109  14622247.35208  21428785.39909  21428792.06008
  24492653.59909  19386557.31909  15097421.06506  24492653.69009  24492661.03606
  24282583.80908  18215032.79408  14204678.87306  24282582.13908  24282588.78106
  24366050.52608  18074301.15208  14097866.62906  24366051.89008  24366058.97106
  24639679.21108  19676276.36108  15317542.07805  24639682.35708  24639690.00405
  23143129.56009  19954349.17009  15528942.81807  23143130.39009  23143137.85307
  20992706.41609  18723677.93709  14595594.61608  20992707.77609  20992713.43308
 94  3 17  9 46 40.0000000  0  8 27 02 31 23 09 17 16 26             0.000776652
  22404173.95009  19916081.40909  15503954.83007  22404173.87209  22404180.69207
  21427098.31409  18751622.91709  14615339.14008  21427098.27809  21427104.86608
  24499405.53008  19422028.81708  15125061.18506  24499403.56008  24499409.77406
  24273301.63509  18166276.94609  14166687.29706  24273304.26509  24273311.28706
  24354463.72208  18013435.56508  14050438.94306  24354469.05208  24354476.68306
  24650263.24908  19731893.44008  15360880.03605  24650266.17208  24650273.53405
  23157387.26309  20029266.58209  15587319.95607  23157386.60909  23157394.32307
  20990389.60509  18711500.34809  14586105.58308  20990390.42809  20990396.09508
 94  3 17  9 47  0.0000000  0  8 27 02 31 23 09 17 16 26             0.000781697
  22417065.64309  19983823.83109  15556741.10307  22417064.78009  22417071.82907
  21425452.58909  18742981.47009  14608605.55008  21425453.61609  21425460.46108
  24506208.67008     31452.99318     11513.59513         0.00008         0.00003
  24264051.92509  18117661.90909  14128805.45606  24264053.74509  24264059.92006
  24342895.47908  17952603.01808  14003036.98706  24342894.10208  24342901.34206
  24660886.31408  19787678.91308  15404349.22905  24660881.82708  24660888.94205
  23171660.03309  20104292.37409  15645781.54607  23171663.24909  23171671.23007
  20988104.23209  18699498.92809  14576753.82708  20988106.64709  20988112.23508
 94  3 17  9 47 20.0000000  0  8 27 02 31 23 09 17 16 26             0.000786793
  22429977.08409  20051681.64209  15609617.28107  22429977.46709  22429984.63007
  21423851.11509  18734565.22909  14602047.44508  21423852.15009  21423858.89408
  24513043.34308     67403.98808     39527.20416         0.00008  24513046.99206
  24254828.85009  18069191.31709  14091036.17006  24254829.68209  24254836.30306
  24331316.15808  17891809.49308  13955665.42806  24331325.21608  24331332.54406
  24671522.40208  19843625.54308  15447943.98105  24671528.77208  24671534.45405
  23185961.78109  20179433.28109  15704332.82607  23185962.24609  23185970.03907
  20985854.74909  18687674.83909  14567540.24808  20985856.58809  20985862.14508
 94  3 17  9 47 40.0000000  0  8 27 02 31 23 09 17 16 26             0.000791879
  22442908.66609  20119648.19209  15662578.19807  22442911.26409  22442918.30607
  21422292.13009  18726370.65709  14595662.07508  21422292.81809  21422299.61508
  24519925.15209    103592.47409     67726.01306  24519927.52509  24519932.30206
  24245634.11009  18020870.57909  14053383.65406  24245634.21909  24245641.47706
  24319762.99708  17831059.67708  13908327.98206  24319764.45008  24319771.81306
  24682202.31408  19899722.64708  15491656.00205  24682202.42808  24682210.37405
  23200284.16309  20254695.34909  15762978.52807  23200284.46109  23200291.84407
  20983639.92209  18676030.30209  14558466.58308  20983640.67809  20983646.10508
 94  3 17  9 48  0.0000000  0  8 27 02 31 23 09 17 16 26             0.000796958
  22455863.19209  20187724.74609  15715624.82407  22455865.75409  22455872.81707
  21420774.72909  18718397.19809  14589448.99708  21420775.60209  21420782.31608
  24526855.58308    140012.50808     96105.28006  24526856.93408  24526864.47506
  24236468.35309  17972703.60409  14015850.93906  24236468.70409  24236475.31506
  24308217.84208  17770354.43608  13861025.22906  24308213.15008  24308220.45206
  24692902.67408  19955972.14608  15535486.74005  24692907.17508  24692915.02305
  23214629.03809  20330078.75709  15821718.78207  23214629.30709  23214637.20107
  20981459.02409  18664572.09509  14549538.10708  20981460.17909  20981465.60808
 94  3 17  9 48 20.0000000  0  8 27 02 31 23 09 17 16 26             0.000802000
  22468830.80709  20255868.85209  15768724.08507  22468832.89109  22468840.33907
  21419292.20109  18710604.53109  14583376.79608  21419292.70109  21419299.40008
  24533824.82009    176627.52409    124636.42006  24533824.71009  24533830.52106
  24227321.79009  17924652.06909  13978408.18506  24227324.30409  24227331.44806
  24296659.85208  17709658.63708  13813729.84106  24296662.58208  24296671.05106
  24703634.15908  20012341.52108  15579410.91105  24703633.68208  24703640.79505
  23228985.75909  20405532.99509  15880514.21507  23228987.89109  23228996.03607
  20979306.79309  18653262.76509  14540725.63808  20979308.37709  20979313.70008
 94  3 17  9 48 40.0000000  0  8 27 02 31 23 09 17 16 26             0.000806982
  22481806.27709  20324044.31809  15821847.78307  22481806.59609  22481813.92307
  21417836.27509  18702960.77509  14577420.62708  21417837.69109  21417844.69408
  24540821.43308    213404.76108    153294.05206  24540823.01908  24540828.89106
  24218190.24209  17876680.68909  13941027.89806  24218195.94109  24218202.86906
  24285108.06508  17648939.91908  13766416.59206  24285108.26008  24285115.55406
  24714383.20208  20068802.48808  15623406.45306  24714378.42208  24714385.77006
  23243349.28109  20481023.30309  15939337.76307  23243353.46409  23243361.55607
  20977177.97409  18642077.49509  14532009.84008  20977179.84209  20977185.30208
 94  3 17  9 49  0.0000000  0  8 27 02 31 23 09 17 16 26             0.000811940
  22494795.29409  20392311.82609  15875043.20807  22494797.47509  22494804.66207
  21416422.05509  18695529.69509  14571630.17908  21416423.78809  21416430.59008
  24547863.46909    250410.10909    182129.35006  24547864.25009  24547873.48306
  24209092.70709  17828842.64609  13903751.50906  24209092.71009  24209099.61006
  24273554.35208  17588257.77508  13719131.83106  24273561.19708  24273568.03606
  24725152.50808  20125411.82308  15667517.60706  24725151.14308  24725157.96106
  23257731.83409  20556606.77509  15998233.90607  23257735.81009  23257743.90907
  20975085.17809  18631077.57809  14523438.47108  20975086.39309  20975091.86308
 94  3 17  9 49 20.0000000  0  8 27 02 31 23 09 17 16 26             0.000816903
  22507809.97809  20460706.23009  15928337.50707  22507812.40309  22507819.54707
  21415057.45209  18688352.44809  14566037.51708  21415058.07109  21415064.83908
  24554956.77008    287683.14508    211173.26706  24554957.72808  24554963.95806
  24200018.58909  17781180.30309  13866612.01806  24200022.84209  24200030.03106
  24262029.11608  17527654.38208  13671908.46906  24262028.44808  24262035.07006
  24735958.55808  20182207.89608  15711774.26306  24735958.30308  24735966.16906
  23272143.80509  20632317.02509  16057228.83007  23272143.53709  23272151.47907
  20973033.39609  18620299.79109  14515040.18908  20973035.56509  20973041.11008
 94  3 17  9 49 40.0000000  0  8 27 02 31 23 09 17 16 26             0.000821879
  22520851.56709  20529235.36709  15981736.79307  22520853.23109  22520860.22407
  21413741.29109  18681435.83909  14560647.95508  21413741.88209  21413748.64508
  24562101.17809    325226.11609    240427.46206  24562102.54909  24562108.89906
  24190985.44509  17733706.96409  13829619.80406  24190988.87409  24190995.79006
  24250512.64408  17467142.00508  13624756.00006  24250513.29908  24250520.33406
  24746802.67808  20239209.42708  15756191.01005  24746806.43608  24746812.23105
  23286574.82409  20708158.98409  16116326.37607  23286575.77309  23286583.70107
  20971024.60309  18609745.88009  14506816.35508  20971027.12609  20971032.87708
 94  3 17  9 50  0.0000000  0  8 27 02 31 23 09 17 16 26             0.000826870
  22533918.79109  20597902.90509  16035243.91907  22533920.37609  22533927.61507
  21412475.74709  18674785.71809  14555466.04708  21412476.49109  21412483.43408
  24569297.82608    363040.29108    269893.00106  24569297.44108  24569305.01206
  24181990.29009  17686421.55809  13792774.04106  24181991.32509  24181997.46206
  24239008.16208  17406717.84808  13577672.29706  24239015.10808  24239022.60706
  24757691.96708  20296424.23408  15800773.97605  24757692.18408  24757700.00305
  23301029.26509  20784127.90909  16175522.86607  23301032.40709  23301040.73107
  20969059.79109  18599411.33009  14498763.45608  20969060.61109  20969066.42608
 94  3 17  9 50 20.0000000  0  8 27 02 31 23 09 17 16 26             0.000831874
  22547014.93909  20666706.99009  16088857.45507  22547013.52109  22547020.48507
  21411261.33809  18668402.94009  14550492.45608  21411261.95409  21411268.78208
  24576545.21409    401126.95409    299570.92806  24576545.90509  24576552.59706
  24173022.87209  17639314.90409  13756067.54906  24173026.93409  24173033.74206
  24227535.19408  17346372.73508  13530650.18806  24227531.14508  24227538.52606
  24768619.10708  20353849.90908  15845521.24005  24768620.76608  24768628.72505
  23315509.60209  20860217.99409  16234813.77407  23315511.90209  23315520.13607
  20967134.33909  18589288.74409  14490875.72208  20967134.41709  20967140.17808
 94  3 17  9 50 40.0000000  0  8 27 02 31 23 09 17 16 26             0.000836893
  22560128.86309  20735639.24909  16142570.86507  22560130.46909  22560137.68607
  21410097.66309  18662285.48409  14545725.61208  21410097.97809  21410104.49508
  24583841.82308    439477.23508    329454.28106  24583843.58208  24583851.44906
  24164093.94809  17592385.67909  13719499.33806  24164095.64609  24164103.59506
  24216054.65208  17286098.61908  13483683.37106  24216061.69008  24216069.07406
  24779584.72908  20411480.41808  15890428.10205  24779587.24808  24779595.46405
  23330016.00709  20936434.11409  16294202.88007  23330015.26909  23330023.51907
  20965245.93409  18579371.49009  14483147.98608  20965247.21109  20965252.93908
 94  3 17  9 51  0.0000000  0  8 27 02 31 23 09 17 16 26             0.000841928
  22573271.27909  20804702.28809  16196386.18107  22573273.48109  22573279.76307
  21408984.04609  18656439.51609  14541170.31408  21408985.39809  21408992.09108
  24591191.92409    478094.56009    359545.70006  24591193.01309  24591197.95806
  24155202.32709  17545642.08209  13683075.77706  24155201.20909  24155207.97806
  24204605.21208  17225901.48908  13436776.57006  24204606.49208  24204613.82606
  24790591.10708  20469319.81708  15935497.72705  24790594.90908  24790602.50305
  23344543.19609  21012786.19309  16353697.92207  23344544.63609  23344552.36107
  20963398.26809  18569663.43109  14475583.26008  20963399.88909  20963405.36708
 94  3 17  9 51 20.0000000  0  8 27 02 31 23 09 17 16 26             0.000846983
  22586439.62509  20873893.26409  16250301.20907  22586440.07309  22586446.38307
  21407923.17609  18650862.22309  14536824.37508  21407924.04209  21407930.82208
  24598590.61909    516976.68009    389843.47006  24598591.26409  24598598.77406
  24146339.94409  17499091.50109  13646802.59306  24146343.25909  24146350.35606
  24193169.95209  17165777.55609  13389926.82006  24193165.25209  24193172.63106
  24801641.25808  20527368.32008  15980730.29205  24801640.14908  24801647.49605
  23359098.65609  21089280.34809  16413303.68407  23359101.40609  23359109.78907
  20961591.49109  18560170.01709  14468185.79208  20961593.36709  20961598.86908
 94  3 17  9 51 40.0000000  0  8 27 02 31 23 09 17 16 26             0.000852055
  22599629.24809  20943218.33209  16304320.70407  22599631.33809  22599639.37907
  21406913.06209  18645551.37109  14532686.05708  21406913.59909  21406920.32108
  24606037.10709    556118.34809    420343.41906  24606039.49309  24606046.79006
  24137519.19909  17452736.42409  13610681.77206  24137521.91809  24137528.71106
  24181731.17008  17105724.40408  13343132.20606  24181737.88608  24181745.24206
  24812726.70608  20585630.25808  16026129.18405  24812727.61308  24812734.55105
  23373684.78209  21165922.26509  16473024.58607  23373685.86909  23373693.71707
  20959826.65109  18550894.44009  14460958.06708  20959828.19809  20959833.77108
 94  3 17  9 52  0.0000000  0  8 27 02 31 23 09 17 16 26             0.000857141
  22612846.62909  21012677.66609  16358444.81107  22612849.54109  22612856.90807
  21405953.39309  18640510.96409  14528758.47308  21405954.35909  21405961.12408
  24613533.79608    595523.39308    451048.67206  24613537.59608  24613544.55506
  24128736.70509  17406570.94009  13574708.67006  24128736.86409  24128744.01906
  24170320.65808  17045743.21308  13296393.66306  24170323.39608  24170330.83706
  24823846.43508  20644095.52908  16071686.50005  24823852.92708  24823859.58605
  23388299.45209  21242712.41309  16532860.98107  23388298.53509  23388306.42107
  20958105.01309  18541846.61109  14453907.80508  20958106.46009  20958112.13708
 94  3 17  9 52 20.0000000  0  7 27 02 31 23 09 16 26                0.000862243
  22626089.82909  21082265.49109  16412669.05207  22626091.65309  22626098.71507
  21405044.99809  18635735.37609  14525037.23908  21405045.55509  21405052.30608
  24621086.49909    635192.38909    481959.55006  24621087.41509  24621094.71106
  24119987.17909  17360588.57309  13538878.27406  24119986.93109  24119993.11906
  24158921.44809  16985831.18709  13249709.01106  24158922.55909  24158930.48006
  23402938.88309  21319648.59509  16592811.16807  23402939.00909  23402947.34407
  20956427.89009  18533031.63309  14447038.99008  20956428.97609  20956434.80008
 94  3 17  9 52 40.0000000  0  7 27 02 31 23 09 16 26                0.000867342
  22639355.82009  21151979.26909  16466991.43807  22639357.65209  22639364.61507
  21404187.17209  18631224.55409  14521522.31708  21404187.28209  21404194.02508
  24628685.44508    675122.18208    513073.68306  24628685.05808  24628691.30206
  24111272.33109  17314799.64609  13503198.60306  24111273.28909  24111280.54006
  24147538.08309  16925998.05809  13203085.83906  24147537.24409  24147544.19006
  23417604.32109  21396735.92209  16652879.14707  23417608.07209  23417616.47107
  20954795.09909  18524453.73409  14440354.91008  20954796.60409  20954802.39308
 94  3 17  9 53  0.0000000  0  7 27 02 31 23 09 16 26                0.000872452
  22652647.54909  21221818.16409  16521411.32907  22652648.15109  22652654.66907
  21403378.43109  18626979.96809  14518214.84508  21403379.52409  21403386.20408
  24636334.99609    715313.89809    544391.88206  24636333.85209  24636340.78106
  24102593.43109  17269205.83109  13467670.96406  24102597.97709  24102604.36906
  24136167.22809  16866251.80809  13156530.35206  24136167.94109  24136175.11806
  23432306.26509  21473971.58409  16713062.70107  23432306.17109  23432314.26907
  20953209.67609  18516118.20009  14433859.68908  20953210.58609  20953216.25508
 94  3 17  9 53 20.0000000  0  7 27 02 31 23 09 16 26                0.000877568
  22665958.31009  21291779.62409  16575926.72307  22665960.86309  22665968.11807
  21402620.16709  18622990.93209  14515106.50708  21402620.55709  21402627.35108
  24644027.45008    755759.05408    575907.57306  24644029.33208  24644036.82106
  24093957.17209  17223796.94109  13432287.42506  24093956.25609  24093963.20306
  24124812.79808  16806582.99908  13110035.22506  24124812.22208  24124819.73406
  23447026.25509  21551345.45709  16773353.96307  23447030.01809  23447037.91207
  20951668.62609  18508017.22809  14427547.24308  20951668.91409  20951674.67008
 94  3 17  9 53 40.0000000  0  7 27 02 31 23 09 16 26                0.000882689
  22679294.58309  21361862.79209  16630536.94607  22679296.85109  22679304.38407
  21401907.14909  18619251.06509  14512192.33408  21401908.54109  21401915.54308
  24651772.48708    796449.50008    607614.39906  24651773.66908  24651779.42406
  24085350.51909  17178566.25109  13397042.73406  24085349.50909  24085355.93106
  24113473.34209  16746992.79709  13063601.35906  24113473.09109  24113480.29806
  23461778.46409  21628846.89809  16833744.63007  23461777.88809  23461786.03507
  20950168.39009  18500137.63809  14421407.30808  20950169.63809  20950175.27108
 94  3 17  9 54  0.0000000  0  7 27 02 31 23 09 16 26                0.000887819
  22692653.48309  21432061.28609  16685237.02207  22692655.83109  22692663.00807
  21401243.48509  18615763.99709  14509475.13808  21401244.99309  21401251.95608
  24659560.45909    837388.24509    639514.70406  24659563.11009  24659570.83406
  24076775.89309  17133513.81609  13361936.94706  24076776.17609  24076782.77406
  24102147.75709  16687488.52909  13017234.45206  24102150.17609  24102157.15606
  23476547.52009  21706472.52509  16894232.04907  23476549.47009  23476557.65707
  20948709.51009  18492472.43509  14415434.42008  20948710.80309  20948716.32308
 94  3 17  9 54 20.0000000  0  7 27 02 31 23 09 16 26                0.000892959
  22706035.45709  21502373.03509  16740025.34707  22706035.61809  22706042.66707
  21400629.84509  18612529.37609  14506954.65708  21400629.69709  21400636.33908
  24667402.36408    878570.36908    671604.64006  24667401.35308  24667406.98206
  24068237.51209  17088644.41209  13326973.78406  24068237.78309  24068244.33806
  24090838.31208  16628065.24308  12970930.63606  24090841.79108  24090849.60006
  23491343.77509  21784218.85909  16954813.53207  23491344.23809  23491352.47407
  20947288.21109  18485011.50609  14409620.71008  20947291.18709  20947296.80708
 94  3 17  9 54 40.0000000  0  7 27 02 31 23 09 16 26                0.000898110
  22719436.58709  21572796.06309  16794900.38907  22719436.62809  22719444.13907
  21400060.55609  18609542.70209  14504627.38408  21400061.28509  21400068.02608
  24675278.66508    919987.04908    703877.39006  24675280.67608  24675289.26206
  24059737.20209  17043961.05109  13292155.58606  24059734.84409  24059741.53306
  24079545.69009  16568718.71709  12924686.64506  24079548.40409  24079555.58006
  23506163.49109  21862079.51209  17015484.11107  23506160.97809  23506168.86007
  20945907.43209  18477744.39409  14403958.02508  20945908.31209  20945914.00808
 94  3 17  9 55  0.0000000  0  7 27 02 31 23 09 16 26                0.000903270
  22732858.77109  21643330.00009  16849861.85407  22732859.28209  22732866.22007
  21399538.62509  18606801.95909  14502491.74308  21399539.75809  21399546.50308
  24683208.83209    961638.15709    736332.81806  24683207.98709  24683214.19506
  24051267.17909  16999458.23009  13257478.05606  24051266.32809  24051272.82906
  24068270.96909  16509444.84709  12878499.25106  24068269.32309  24068276.57506
  23520995.12109  21940049.35509  17076239.76907  23520998.09809  23521006.24207
  20944559.72809  18470669.07109  14398444.79108  20944561.92109  20944567.74808
 94  3 17  9 55 20.0000000  0  7 27 02 31 23 09 16 26                0.000908442
  22746303.15009  21713986.88509  16904919.13507  22746304.62009  22746311.53407
  21399063.75709  18604309.13809  14500549.28908  21399065.08109  21399071.98108
  24691176.39608   1003529.30908    768975.24506  24691178.44508  24691185.56906
  24042830.79909  16955137.84709  13222942.69906  24042832.40609  24042838.77506
  24057002.26208  16450244.25708  12832368.95506  24057003.40608  24057010.80506
  23535855.99009  22018130.22009  17137081.92007  23535856.19809  23535864.35407
  20943249.82909  18463786.08909  14393081.42708  20943252.10209  20943257.89608
 94  3 17  9 55 40.0000000  0  7 27 02 31 23 09 16 26                0.000913626
  22759772.66709  21784768.00009  16960073.21407  22759773.32609  22759781.03307
  21398637.50009  18602067.74009  14498802.74408  21398638.85109  21398645.63208
  24699196.05908   1045667.81308    801810.37806  24699198.46808  24699205.73506
  24034431.99209  16911006.78809  13188554.86306  24034434.41109  24034440.80306
  24045751.91209  16391118.51809  12786296.99806  24045752.19409  24045759.78306
  23550733.02709  22096319.16409  17198008.28207  23550735.08309  23550742.86107
  20941979.06309  18457102.17509  14387873.18308  20941980.42109  20941986.12908
 94  3 17  9 56  0.0000000  0  7 27 02 31 23 09 16 26                0.000918819
  22773263.63509  21855666.84309  17015319.02307  22773265.77309  22773272.90407
  21398260.23209  18600080.17409  14497253.99808  21398260.73809  21398267.34208
  24707262.14508   1088057.70808    834841.45806  24707263.42408  24707269.81606
  24026072.80609  16867067.90009  13154316.76506  24026073.20509  24026079.62406
  24034513.24409  16332063.36509  12740280.03906  24034514.44509  24034521.13706
  23565636.22209  22174612.38609  17259015.92207  23565634.09909  23565642.68207
  20940746.31609  18450623.22009  14382824.64808  20940747.42609  20940753.00108
 94  3 17  9 56 20.0000000  0  7 27 02 31 23 09 16 26                0.000924018
  22786779.12009  21926687.35009  17070659.64307  22786780.32409  22786787.63407
  21397929.42809  18598343.83209  14495901.00708  21397930.05609  21397937.06108
  24715377.29308   1130701.89608    868070.69406  24715380.00108  24715387.32206
  24017747.00309  16823326.16709  13120232.30806  24017749.76509  24017755.83106
  24023290.54909  16273074.45909  12694314.68806  24023289.63509  24023296.67306
  23580552.53909  22253007.15709  17320102.67807  23580552.23409  23580560.34907
  20939553.97909  18444361.85009  14377945.65508  20939555.82409  20939561.52408
 94  3 17  9 56 40.0000000  0  7 27 02 31 23 09 16 26                0.000929218
  22800317.76209  21997826.72109  17126092.87007  22800317.63209  22800325.26507
  21397644.84009  18596853.13509  14494739.42808  21397646.32509  21397653.44008
  24723540.94708   1173603.37308    901500.39906  24723543.28708  24723548.66506
  24009460.60509  16779778.63709  13086299.14106  24009462.64109  24009468.94006
  24012074.70509  16214152.43109  12648401.47806  24012076.28809  24012083.86906
  23595487.30809  22331505.37209  17381270.04407  23595490.15809  23595497.64707
  20938405.57109  18438327.00309  14373243.17508  20938407.46409  20938413.11808
 94  3 17  9 57  0.0000000  0  7 27 02 31 23 09 16 26                0.000934420
  22813873.90009  22069082.50409  17181616.81507  22813876.99809  22813884.58407
  21397408.22709  18595607.91209  14493769.12908  21397409.37309  21397416.38308
  24731754.45408   1216761.59008    935130.20606  24731755.23608  24731763.52706
  24001207.35109  16736422.10209  13052514.84006  24001211.91109  24001218.74306
  24000875.44709  16155299.33909  12602541.96706  24000876.86109  24000885.04006
  23610446.35409  22410108.63709  17442519.26907  23610447.72809  23610455.70907
  20937299.76809  18432518.75909  14368717.26908  20937302.11709  20937307.88308
 94  3 17  9 57 20.0000000  0  7 27 02 31 23 09 16 26                0.000939625
  22827455.44209  22140456.11809  17237232.58007  22827459.25609  22827466.56407
  21397219.36809  18594611.81909  14492992.95608  21397219.95509  21397226.65408
  24740015.81708   1260173.68808    968957.75706  24740017.17008  24740023.47606
  23992998.67909  16693257.94609  13018880.43806  23992998.04509  23993004.79506
  23989689.74608  16096517.22008  12556737.75406  23989690.78708  23989698.91406
  23625426.27809  22488817.90209  17503851.08507  23625425.27409  23625434.06407
  20936237.57909  18426934.60609  14364365.97508  20936239.43809  20936245.27308
 94  3 17  9 57 40.0000000  0  7 27 02 31 23 09 16 26                0.000944835
  22841062.55609  22211939.87609  17292934.16907  22841062.24309  22841069.48107
  21397076.67309  18593863.66809  14492409.98008  21397077.74009  21397084.44008
  24748325.62908   1303839.24208   1002982.91006  24748325.67208  24748333.02506
  23984821.39909  16650287.47309  12985396.93906  23984821.26009  23984827.69006
  23978518.86808  16037808.12208  12510990.45506  23978519.22508  23978526.61506
  23640424.34809  22567631.37209  17565264.08907  23640423.49709  23640431.94007
  20935216.81509  18421574.88609  14360189.56608  20935219.71509  20935225.37308
 94  3 17  9 58  0.0000000  0  7 27 02 31 23 09 16 26                0.000950047
  22854682.51209  22283529.24909  17348718.07207  22854685.21009  22854691.97207
  21396981.54609  18593363.15609  14492019.97508  21396982.47609  21396989.14608
  24756684.39809   1347753.09909   1037201.46606  24756684.09409  24756690.93006
  23976678.24809  16607506.08009  12952060.80506  23976680.78709  23976685.42206
  23967360.92109  15979174.27309  12465301.77306  23967362.17809  23967369.01906
  23655440.42109  22646552.42709  17626760.94807  23655441.65209  23655449.93107
  20934239.22209  18416435.26409  14356184.66008  20934241.78309  20934247.28908
 94  3 17  9 58 20.0000000  0  7 27 02 31 23 09 16 26                0.000955267
  22868329.01709  22355226.98909  17404586.41007  22868328.86409  22868336.02007
  21396932.72609  18593108.93809  14491821.88708  21396934.11309  21396941.02508
  24765081.67409   1391912.20609   1071611.17106  24765085.25209  24765092.10906
  23968572.87709  16564910.73409  12918869.62606  23968574.79609  23968581.60806
  23956217.90308  15920621.78908  12419676.49006  23956219.62808  23956226.68806
  23670482.30709  22725585.72109  17688345.25907  23670481.10409  23670489.19207
  20933303.90109  18411511.96409  14352348.31408  20933304.75609  20933310.41408
 94  3 17  9 58 40.0000000  0  7 27 02 31 23 09 16 26                0.000960496
  22881993.31509  22427031.09509  17460537.63707  22881992.85509  22882000.52207
  21396931.32109  18593101.61809  14491816.18808  21396932.60309  21396939.64708
  24773532.24309   1436306.79009   1106204.33106  24773534.76709  24773541.34706
  23960503.96309  16522497.38809  12885820.26106  23960503.96509  23960510.00606
  23945087.43709  15862152.16809  12374115.78606  23945092.69809  23945099.81806
  23685540.61609  22804733.28009  17750018.60407  23685542.26909  23685550.90107
  20932404.19209  18406795.71109  14348673.30908  20932407.13609  20932412.83208
 94  3 17  9 59  0.0000000  0  7 27 02 31 23 09 16 26                0.000965736
  22895677.74709  22498942.59509  17516572.53607  22895676.72209  22895684.78407
  21396978.09909  18593346.21109  14492006.78608  21396979.07109  21396986.10308
  24782025.48909   1480930.48909   1140976.02706  24782025.38409  24782030.81106
  23952465.04909  16480264.84609  12852911.78906  23952466.76709  23952473.18506
  23933988.78709  15803762.07809  12328617.05206  23933981.45909  23933988.23806
  23700623.58309  22883990.67109  17811777.54107  23700624.71009  23700633.42507
  20931545.26309  18402276.67209  14345151.97508  20931547.20309  20931552.79308
 94  3 17  9 59 20.0000000  0  7 27 02 31 23 09 16 26                0.000970984
  22909379.30309  22570961.22009  17572690.89907  22909381.79909  22909389.67707
  21397072.89409  18593844.97709  14492395.43608  21397074.13409  21397080.90308
  24790559.52708   1525782.66508   1175925.78106  24790561.37408  24790568.21306
  23944465.36609  16438213.94409  12820144.86006  23944465.20009  23944471.45106
  23922883.86009  15745450.21409  12283179.26806  23922885.51509  23922892.01406
  23715726.68609  22963350.83009  17873616.53006  23715726.12909  23715734.66806
  20930723.31509  18397954.11309  14341783.73908  20930724.82909  20930730.43108
 94  3 17  9 59 40.0000000  0  7 27 02 31 23 09 16 26                0.000976239
  22923108.54309  22643088.18509  17628893.70707  22923107.16509  22923114.70707
  21397216.28209  18594598.79509  14492982.83308  21397217.52409  21397224.18608
  24799139.46209   1570870.91709   1211059.43106  24799141.14609  24799146.93206
  23936500.05409  16396351.00709  12787524.39006  23936498.59509  23936505.28006
  23911803.10909  15687220.75709  12237805.70506  23911804.42409  23911811.33106
  23730846.06909  23042814.79109  17935536.43206  23730848.09209  23730856.64306
  20929940.53409  18393838.49709  14338576.76108  20929941.71309  20929947.44208
 94  3 17 10  0  0.0000000  0  7 27 02 31 23 09 16 26                0.000981499
  22936849.63309  22715318.53209  17685177.07707  22936852.17009  22936859.50007
  21397407.83909  18595603.25709  14493765.53408  21397408.62809  21397415.28608
  24807760.31408   1616188.97108   1246372.28006  24807763.43808  24807770.83106
  23928566.93609  16354674.44309  12755049.15106  23928567.74309  23928574.52706
  23900738.25008  15629070.37208  12192493.75206  23900738.47408  23900746.09706
  23745986.64209  23122376.79109  17997532.73906  23745988.44909  23745996.42506
  20929195.83109  18389932.10109  14335532.81108  20929198.30309  20929204.06208
 94  3 17 10  0 20.0000000  0  7 27 02 31 23 09 16 26                0.000986761
  22950616.52309  22787653.01209  17741541.59107  22950617.16909  22950624.30907
  21397646.74409  18596859.72209  14494744.60308  21397647.75709  21397654.69408
  24816431.51209   1661733.04009   1281861.16306  24816431.94409  24816437.98706
  23920671.17009  16313191.91209  12722725.08806  23920674.01109  23920680.36206
  23889689.01909  15570999.27309  12147243.57906  23889688.17709  23889694.87606
  23761144.21609  23202032.12809  18059601.76206  23761146.46909  23761154.32806
  20928493.00809  18386233.89609  14332651.08908  20928494.66309  20928500.30708
 94  3 17 10  0 40.0000000  0  7 27 02 31 23 09 16 26                0.000992026
  22964398.06709  22860091.23909  17797986.94407  22964401.45709  22964409.25707
  21397933.50209  18598369.83509  14495921.31908  21397934.92609  21397941.97508
  24825139.73008   1707505.55808   1317528.09606  24825140.57008  24825148.27606
  23912812.41509  16271909.49609  12690556.99106  23912818.22909  23912824.55906
  23878652.07009  15513005.76609  12102053.85706  23878652.46109  23878659.31506
  23776320.79609  23281776.90009  18121740.46107  23776321.21909  23776330.32007
  20927829.75309  18382748.50809  14329935.19408  20927831.21809  20927836.88308
 94  3 17 10  1  0.0000000  0  7 27 02 31 23 09 16 26                0.000997293
  22978204.06109  22932633.27209  17854513.16507  22978205.74709  22978213.55707
  21398270.51309  18600134.94809  14497296.73608  21398270.98109  21398277.75408
  24833893.26408   1753512.78208   1353377.80906  24833897.26808  24833904.36506
  23904997.15809  16230830.16609  12658547.13606  23905001.18309  23905007.32506
  23867635.14409  15455092.38109  12056926.58206  23867631.50109  23867638.83706
  23791510.17609  23361610.21209  18183948.15207  23791512.85909  23791521.62907
  20927208.57209  18379481.33009  14327389.34008  20927209.74009  20927215.39108
 94  3 17 10  1 20.0000000  0  7 27 02 31 23 09 16 26                0.001002561
  22992027.81209  23005278.37009  17911119.70507  22992029.87809  22992037.23507
  21398654.31009  18602149.76709  14498866.72608  21398654.64909  21398661.03508
  24842693.05608   1799759.89108   1389414.50506  24842694.62608  24842703.07506
  23897219.71609  16189956.41909  12626697.46506  23897223.35109  23897229.56806
  23856622.63808  15397263.34808  12011865.02006  23856627.28208  23856634.15406
  23806719.63809  23441530.95709  18246223.95907  23806721.51509  23806730.45407
  20926629.20209  18376438.88709  14325018.60008  20926630.82109  20926636.36808
 94  3 17 10  1 40.0000000  0  7 27 02 31 23 09 16 26                0.000007829
  22706081.23309  21502606.77909  16740206.75707  22706081.24109  22706088.43707
  21099290.07109  17028983.29309  13273022.72208  21099290.78109  21099297.38308
  24551749.75708    270828.17308    198039.13406  24551751.12608  24551759.58206
  23589691.08409  14573864.95909  11367405.43306  23589690.93009  23589697.36406
  23545844.15709  13764095.37609  10739266.63406  23545845.58709  23545853.32506
  23522151.88109  21946124.70109  17080972.24406  23522154.87109  23522163.44206
  20626303.05909  16798205.98609  13095226.72308  20626303.09709  20626308.62208
 94  3 17 10  2  0.0000000  0  7 27 02 31 23 09 16 26                0.000013099
  22719941.67009  21575450.23609  16796967.88207  22719942.42909  22719949.93307
  21099763.22109  17031474.49209  13274963.91708  21099764.60309  21099771.63408
  24560639.27908    317550.03508    234445.69506  24560641.30408  24560647.28506
  23581989.15009  14533399.03409  11335873.55206  23581990.46109  23581997.11306
  23534873.61709  13706433.03909  10694334.97806  23534873.06109  23534880.36806
  23537396.93309  22026223.27109  17143386.62906  23537397.29709  23537406.40206
  20625808.59809  16795620.52009  13093212.07208  20625810.99509  20625816.70008
 94  3 17 10  2 20.0000000  0  7 27 02 31 23 09 16 26                0.000018371
  22733821.38209  21648395.65109  16853808.43507  22733823.15409  22733831.20607
  21100283.14109  17034210.26809  13277095.69208  21100285.30109  21100292.06808
  24569576.42608    364506.60208    271035.21506  24569577.05408  24569585.36106
  23574325.64209  14493132.21909  11304496.79906  23574328.19509  23574335.01406
  23523911.68009  13648849.51909  10649464.73706  23523915.14009  23523922.39206
  23552654.31709  22106409.62209  17205869.43006  23552656.77609  23552664.82006
  20625358.39409  16793255.51109  13091369.20508  20625361.03709  20625366.57208
 94  3 17 10  2 40.0000000  0  7 27 02 31 23 09 16 26                0.000023644
  22747723.36209  21721444.16709  16910729.33707  22747724.17309  22747732.04207
  21100851.65809  17037193.49209  13279420.27808  21100853.05709  21100859.81208
  24578558.69609    411703.82309    307812.18706  24578560.03909  24578566.07506
  23566699.71309  14453058.65609  11273270.64406  23566702.52509  23566708.78006
  23512972.10109  13591343.86309  10604655.16706  23512972.18009  23512978.73506
  23567931.00509  22186687.56509  17268423.58406  23567933.20709  23567941.82006
  20624952.35309  16791113.36709  13089699.99808  20624953.29809  20624958.84908
 94  3 17 10  3  0.0000000  0  7 27 02 31 23 09 16 26                0.000028929
  22761644.74609  21794606.24909  16967738.72707  22761646.47909  22761653.71507
  21101469.33809  17040433.32309  13281944.82508  21101469.85009  21101476.39808
  24587584.22508    459148.59308    344782.13306  24587587.01908  24587594.23806
  23559113.25509  14413184.18209  11242199.62606  23559114.68209  23559121.15806
  23502047.76309  13533927.64809  10559915.27706  23502046.61909  23502053.08006
  23583229.34709  22267070.85409  17331059.82706  23583229.60909  23583238.33906
  20624586.50009  16789202.06209  13088210.66608  20624589.46709  20624595.08008
 94  3 17 10  3 20.0000000  0  7 27 02 31 23 09 16 26                0.000034228
  22775590.68809  21867888.00309  17024841.37007  22775591.50009  22775599.03907
  21102135.88409  17043937.74509  13284675.54308  21102136.68509  21102143.44108
  24596663.86208    506844.47508    381947.70006  24596664.04808  24596672.02506
  23551565.64209  14373516.90109  11211290.06206  23551566.21409  23551572.73306
  23491135.83709  13476604.24509  10515247.70806  23491138.03809  23491145.10506
  23598546.65809  22347566.75309  17393783.81206  23598546.97109  23598556.55306
  20624269.69109  16787526.39609  13086904.95208  20624270.58909  20624276.24008
 94  3 17 10  3 40.0000000  0  7 27 02 31 23 09 16 26                0.000039540
  22789558.78909  21941284.34109  17082033.28407  22789558.60809  22789565.98907
  21102852.48709  17047707.09109  13287612.68908  21102853.66009  21102860.54308
  24605786.06908    554789.51608    419307.51506  24605786.10908  24605793.39606
  23544054.95909  14334056.74709  11180541.87906  23544057.06109  23544063.40206
  23480241.97208  13419371.59908  10470650.88406  23480246.61408  23480253.72506
  23613885.79309  22428176.17109  17456596.25107  23613887.43209  23613895.78607
  20623994.91409  16786084.71309  13085781.55808  20623996.43609  20624002.12708
 94  3 17 10  4  0.0000000  0  7 27 02 31 23 09 16 26                0.000044864
  22803545.27309  22014789.73309  17139310.17707  22803546.46109  22803553.31807
  21103621.97209  17051751.36909  13290764.07508  21103623.14509  21103630.22608
  24614956.50108    602979.62108    456858.29706  24614957.59208  24614964.60306
  23536586.23109  14294804.23309  11149955.50906  23536587.68709  23536593.91206
  23469373.95209  13362228.26309  10426123.64806  23469372.81809  23469379.97706
  23629247.14909  22508897.56009  17519495.93807  23629247.77609  23629256.34507
  20623762.86209  16784869.77009  13084834.84608  20623765.21109  20623770.89708
 94  3 17 10  4 20.0000000  0  8 27 02 31 23 09 12 16 26             0.000050210
  22817553.15409  22088402.33209  17196670.62107  22817554.27009  22817561.09507
  21104444.35309  17056073.95809  13294132.32508  21104445.72409  21104452.76108
  24624172.52309    651412.70809    494598.32706  24624174.45309  24624178.66306
  23529158.23509  14255760.42409  11119531.75806  23529157.89409  23529164.42806
  23458518.32709  13305172.55809  10381664.68306  23458515.93909  23458523.07806
  24335849.60608  -4377638.21918  -3388887.35717  24335857.89508  24335868.93907
  23644628.20009  22589727.71809  17582480.39607  23644629.12109  23644638.04207
  20623574.74309  16783878.74909  13084062.62008  20623576.61209  20623582.31408
 94  3 17 10  4 40.0000000  0  8 27 02 31 23 09 12 16 26             0.000055557
  22831581.54409  22162111.39809  17254106.21807  22831580.38309  22831588.07607
  21105317.29609  17060661.71209  13297707.19508  21105318.64809  21105325.83308
  24633433.99808    700085.85708    532525.48506  24633436.04808  24633442.73906
  23521768.56209  14216925.47109  11089270.74206  23521767.41109  23521774.16206
  23447670.79609  13248202.28609  10337272.29206  23447674.14009  23447681.27206
  24323274.84208  -4443762.17908  -3440412.46807  24323275.04008  24323285.52007
  23660027.77309  22670662.28509  17645546.18907  23660030.71509  23660039.26907
  20623429.12509  16783109.93609  13083463.54108  20623430.32509  20623436.05908
 94  3 17 10  5  0.0000000  0  8 27 02 23 07 09 12 16 26             0.000060935
  22845622.99109  22235910.51409  17311611.98407  22845624.54409  22845632.00207
  21106239.46309  17065504.04409  13301480.43608  21106240.29409  21106247.27108
  23514419.57909  14178302.74009  11059175.10606  23514418.11809  23514424.43906
  24853918.22708  -4922901.46218  -3809960.30015  24853918.79208  24853928.63705
  23436843.85909  13191313.63309  10292943.51706  23436848.39509  23436855.57906
  24310706.51708  -4509805.53808  -3491874.80307  24310707.55708  24310717.65507
  23675449.78309  22751695.51009  17708688.87607  23675450.94909  23675460.10107
  20623324.47309  16782560.86609  13083035.69208  20623325.77309  20623331.58108
 94  3 17 10  5 20.0000000  0  8 27 02 23 07 09 12 16 26             0.000066285
  22859684.13809  22309800.02309  17369188.19507  22859684.80309  22859692.48307
  21107209.59209  17070600.90509  13305452.01508  21107210.62409  21107217.22108
  23507110.52109  14139897.89809  11029249.25306  23507109.85509  23507116.55706
  24842848.02408  -4981070.38608  -3855286.68705  24842849.40708  24842858.61805
  23426037.82709  13134502.74409  10248675.31406  23426037.93309  23426044.82606
  24298151.67808  -4575768.81508  -3543274.72307  24298155.07508  24298164.83907
  23690889.55409  22832824.26409  17771905.98806  23690889.44109  23690897.70106
  20623261.46909  16782234.02809  13082781.01308  20623263.64509  20623269.34808
 94  3 17 10  5 40.0000000  0  8 27 02 23 07 09 12 16 26             0.000071639
  22873761.05909  22383780.60009  17426835.35207  22873762.36509  22873770.69007
  21108227.07609  17075948.94009  13309619.30908  21108228.31609  21108234.96408
  23499840.68609  14101705.94209  10999489.28806  23499841.91609  23499848.89106
  24831790.61608  -5039171.12608  -3900559.96605  24831792.07808  24831802.79405
  23415235.33709  13077767.01009  10204465.68106  23415241.52209  23415248.87406
  24285621.18808  -4641652.38708  -3594612.49907  24285618.35208  24285628.66807
  23706342.42609  22914041.75109  17835192.24006  23706344.61109  23706353.77306
  20623241.18509  16782130.11309  13082700.03508  20623243.87309  20623249.44808
 94  3 17 10  6  0.0000000  0  8 27 02 23 07 09 12 16 26             0.000076997
  22887857.90009  22457857.13909  17484557.27407  22887859.22609  22887867.20007
  21109292.78509  17081550.15409  13313983.88708  21109293.97309  21109300.80208
  23492611.45809  14063729.13709  10969896.97906  23492615.73309  23492622.36606
  24820746.22108  -5097206.32208  -3945782.12705  24820747.73608  24820757.81005
  23404460.58109  13021108.10909  10160315.91906  23404459.62909  23404466.69106
  24273095.79708  -4707454.43508  -3645886.76307  24273096.72908  24273106.71407
  23721814.70909  22995343.79009  17898544.36906  23721815.58709  23721824.10206
  20623265.30309  16782252.33909  13082795.27008  20623267.04409  20623272.66708
 94  3 17 10  6 20.0000000  0  8 27 02 23 07 09 12 16 26             0.000082363
  22901973.84409  22532033.86809  17542357.27707  22901974.81909  22901982.49507
  21110405.24509  17087396.96609  13318539.83808  21110406.62209  21110413.49508
  23485424.44909  14025964.44409  10940469.94506  23485429.00409  23485435.76806
  24809715.42008  -5155181.95908  -3990957.88505  24809716.89508  24809725.48005
  23393691.69609  12964524.06009  10116224.48106  23393692.35209  23393699.30606
  24260591.41808  -4773176.23208  -3697098.48207  24260590.28708  24260600.66407
  23737306.90009  23076725.14609  17961958.33106  23737302.32509  23737311.72506
  20623330.22709  16782598.54309  13083065.04008  20623332.62009  20623338.45308
 94  3 17 10  6 40.0000000  0  8 27 02 23 07 09 12 16 26             0.000087732
  22916107.45509  22606312.27009  17600236.49907  22916109.02909  22916116.72007
  21111562.25609  17093480.93309  13323280.58208  21111564.11209  21111571.01808
  23478278.30009  13988406.13309  10911203.72006  23478281.89809  23478288.72406
  24798696.37308  -5213099.07708  -4036088.07005  24798695.02708  24798704.69005
  23382938.69009  12908013.51009  10072190.30806  23382938.49609  23382945.73306
  24248095.66708  -4838819.15008  -3748248.73107  24248098.94908  24248109.55407
  23752803.66409  23158184.00309  18025432.67206  23752804.26809  23752811.68806
  20623439.47809  16783166.75309  13083507.79608  20623441.11909  20623446.82708
 94  3 17 10  7  0.0000000  0  8 27 02 23 07 09 12 16 26             0.000093109
  22930264.14509  22680702.04209  17658202.50507  22930265.28109  22930272.91807
  21112766.57609  17099803.38909  13328207.16608  21112767.47509  21112774.31108
  23471173.17409  13951054.64009  10882098.66006  23471174.04409  23471180.75406
  24787683.66508  -5270958.37708  -4081173.18405  24787685.09608  24787694.43705
  23372200.58509  12851577.37609  10028214.13906  23372199.20009  23372205.81906
  24235615.28308  -4904381.30508  -3799336.03607  24235622.94008  24235633.48707
  23768315.95709  23239721.19609  18088968.06406  23768319.35509  23768328.59006
  20623589.14709  16783953.63909  13084120.94808  20623591.12309  20623596.56008
 94  3 17 10  7 20.0000000  0  8 27 02 23 07 09 12 16 26             0.000098493
  22944437.69409  22755203.57109  17716255.59507  22944442.68809  22944450.49007
  21114015.02409  17106366.35409  13333321.16308  21114016.33509  21114023.23008
  23464101.62009  13913905.47409  10853151.26006  23464104.95809  23464111.62806
  24776680.32208  -5328766.58208  -4126218.51405  24776684.00808  24776694.14705
  23361470.74909  12795219.89009   9984299.24606  23361474.72409  23361481.31706
  24223165.32208  -4969863.77708  -3850361.26807  24223161.75508  24223172.40307
  23783849.20409  23321334.33609  18152562.61706  23783850.59609  23783859.22906
  20623779.99809  16784957.76409  13084903.37808  20623782.09309  20623787.52808
 94  3 17 10  7 40.0000000  0  8 27 02 23 07 09 12 16 26             0.000103874
  22958639.48409  22829804.03609  17774385.77707  22958638.91209  22958646.39007
  21115308.37009  17113160.04009  13338614.94308  21115309.28609  21115315.87808
  23457068.81009  13876943.17809  10824349.46606  23457071.54809  23457077.82406
  24765690.77008  -5386536.87508  -4171234.30305  24765690.96908  24765700.75305
  23350758.43109  12738935.13609   9940441.00506  23350763.46609  23350770.86506
  24210708.02308  -5035277.17408  -3901332.65407  24210713.76308  24210724.45107
  23799389.79209  23403010.27309  18216206.12606  23799392.57109  23799401.76106
  20624010.02809  16786165.35909  13085844.36108  20624012.00809  20624017.38208
 94  3 17 10  8  0.0000000  0  8 27 02 23 07 09 12 16 26             0.000109255
  22972850.26509  22904494.89409  17832586.39807  22972851.69609  22972859.25507
  21116644.75609  17120183.78709  13344087.98208  21116645.78909  21116652.45708
  23450072.34309  13840171.43009  10795696.15706  23450073.99609  23450080.55906
  24754704.93908  -5444273.08808  -4216223.51505  24754704.44108  24754713.55305
  23340065.97809  12682725.10109   9896641.02306  23340067.04309  23340074.42706
  24198278.82908  -5100622.09208  -3952250.66307  24198278.57508  24198289.91707
  23814945.95809  23484749.67109  18279899.05306  23814946.99009  23814956.57406
  20624277.56809  16787572.51009  13086940.83908  20624279.65609  20624285.09608
 94  3 17 10  8 20.0000000  0  8 27 02 23 07 09 12 16 26             0.000114640
  22987081.55909  22979277.90709  17890858.83907  22987082.74109  22987090.53907
  21118027.00309  17127444.10509  13349745.36408  21118027.33609  21118034.03808
  23443118.96509  13803595.55809  10767195.47206  23443113.98809  23443120.39606
  24743722.22108  -5501971.75408  -4261183.51205  24743725.57208  24743732.97105
  23329382.84309  12626593.98109   9852902.50106  23329386.37509  23329393.18206
  24185855.14808  -5165897.01308  -4003114.13607  24185856.93308  24185868.13307
  23830513.51509  23566557.32309  18343645.16106  23830514.82209  23830523.10906
  20624583.04109  16789177.70709  13088191.63508  20624585.07909  20624590.57408
 94  3 17 10  8 40.0000000  0  8 27 02 23 07 09 12 16 26             0.000120026
  23001330.18109  23054152.99709  17949203.02507  23001330.95809  23001338.86007
  21119452.84709  17134945.10409  13355590.29408  21119454.57109  21119461.46908
  23436192.20309  13767214.97109  10738846.95606  23436190.64809  23436197.41406
  24732751.32608  -5559627.96908  -4306110.40705  24732752.44408  24732762.79905
  23318719.95709  12570541.51609   9809225.28006  23318719.45909  23318726.40806
  24173444.17108  -5231101.44608  -4053922.68507  24173448.64408  24173459.78407
  23846092.90709  23648433.17409  18407444.42606  23846095.22209  23846104.07106
  20624926.36909  16790981.54509  13089597.21508  20624928.50709  20624934.11408
 94  3 17 10  9  0.0000000  0  8 27 02 23 07 09 12 16 26             0.000125414
  23015595.17709  23129118.78209  18007617.87907  23015596.25109  23015604.48307
  21120928.68409  17142696.63609  13361630.44708  21120929.75409  21120936.59708
  23429304.75709  13731039.17209  10710658.02407  23429306.88509  23429313.37507
  24721788.61408  -5617236.26108  -4350999.92305  24721789.78008  24721800.62505
  23308064.82509  12514571.62109   9765612.39806  23308068.34609  23308075.74406
  24161054.10908  -5296229.80808  -4104671.97507  24161055.42708  24161065.97807
  23861685.99409  23730378.20509  18471297.62406  23861689.37909  23861698.00706
  20625309.48609  16792993.16009  13091164.70208  20625311.36309  20625316.91508
 94  3 17 10  9 20.0000000  0  8 27 02 23 07 09 12 16 26             0.000130797
  23029874.09509  23204162.79009  18066093.68107  23029876.81309  23029884.56107
  21122452.21109  17150701.18509  13367867.75208  21122453.12109  21122459.75708
  23422459.49209  13695065.86009  10682626.85707  23422461.51309  23422467.63707
  24710838.88108  -5674799.94508  -4395854.67705  24710835.89108  24710846.90805
  23297436.25109  12458682.73009   9722062.65306  23297433.53609  23297440.56406
  24148673.18708  -5361283.64008  -4155363.19407  24148676.45308  24148685.34207
  23877295.79409  23812390.25109  18535203.02306  23877295.35009  23877304.57706
  20625732.89809  16795217.24609  13092897.75208  20625734.38209  20625740.00808
 94  3 17 10  9 40.0000000  0  8 27 02 23 07 09 12 16 26             0.000136173
  23044170.46809  23279282.54309  18124628.50307  23044171.84909  23044179.39907
  21124023.69009  17158961.76009  13374304.55708  21124024.93609  21124031.60008
  23415651.61209  13659295.36009  10654753.73707  23415654.40509  23415661.05507
  24699881.76308  -5732319.61208  -4440675.13705  24699890.36508  24699899.51605
  23286813.44909  12402869.45109   9678571.80706  23286812.72409  23286819.92906
  24136314.14808  -5426263.09608  -4205996.47107  24136311.47608  24136320.70607
  23892914.01109  23894465.39209  18599157.59506  23892914.02509  23892922.65106
  20626195.90709  16797654.17909  13094796.65508  20626198.13209  20626203.81708
 94  3 17 10 10  0.0000000  0  8 27 02 23 07 09 12 16 26             0.000141541
  23058477.98609  23354471.29309  18183217.09707  23058480.09209  23058487.45507
  21125642.69909  17167471.99709  13380935.90608  21125644.27509  21125650.99108
  23408883.97009  13623727.16509  10627038.27107  23408885.86509  23408892.43807
  24688951.67608  -5789797.34508  -4485462.93005  24688953.45808  24688961.78805
  23276204.07409  12347124.15509   9635133.93907  23276204.83509  23276211.61207
  24123956.91608  -5491171.71908  -4256574.56907  24123959.67508  24123968.92307
  23908540.91109  23976602.38309  18663160.34806  23908544.23109  23908553.16706
  20626700.95709  16800300.96209  13096859.07808  20626701.91709  20626707.50108
 94  3 17 10 10 20.0000000  0  8 27 02 23 07 09 12 16 26             0.000146900
  23072799.50309  23429736.48109  18241865.25707  23072802.21209  23072810.13007
  21127311.31909  17176235.31409  13387764.46108  21127311.91209  21127318.76208
  23402156.22409  13588362.23309  10599481.19706  23402156.07409  23402162.72606
  24678021.10408  -5847226.21108  -4530212.66805  24678024.73908  24678034.09705
  23265607.87309  12291453.92809   9591754.56707  23265610.88509  23265618.04607
  24111622.06408  -5556005.49608  -4307094.31607  24111622.00708  24111631.98307
  23924186.56609  24058803.34509  18727212.95506  23924186.69009  23924195.74506
