     2              OBSERVATION DATA    GPS                 RINEX VERSION / TYPE
BIN2RINW                                97 09 25 17 25 25   PGM / RUN BY / DATE 
TOPCON-GEOCOMP RINEX Formatter-Version: 97.08.01            COMMENT             
                                                            COMMENT             
0810                                                        MARKER NAME         
                                                            OBSERVER / AGENCY   
                    Z-XII3              1C00                REC # / TYPE / VERS 
                    Precise Geodetic                        ANT # / TYPE        
  3436403.5300   603282.7800  5321505.3100                  APPROX POSITION XYZ 
LATN  56 55 33.73256   LONE   9 57 25.83735    114.058(m)   COMMENT             
LATN  56 55 33.73256   LONW 350 02 34.16265    114.058(m)   COMMENT             
        1.2019        0.0000        0.0000                  ANTENNA: DELTA H/E/N
| Original slant height(m) :    1.2610   |      _______     COMMENT             
| Offsets used to calculate slant height |     /  GPS  \    COMMENT             
| Antenna Radius (m):           0.1737   |    | ANTENNA |   COMMENT             
| Antenna Vertical Offset (m):  0.0471   |    |_________|   COMMENT             
HEIGHT CALCULATED TO THIS POINT  (ARP*)_______\ |_____|     COMMENT             
*ARP - Antenna Reference Point                /    ^        COMMENT             
     1     1                                                WAVELENGTH FACT L1/2
     5    C1    L1    L2    P1    P2                        # / TYPES OF OBSERV 
  1994     3    17     8    30   20.000000                  TIME OF FIRST OBS   
                                                            END OF HEADER       
                            3  4                                                                                
          --> THIS IS THE START OF A NEW SITE <--           COMMENT             
                                                            COMMENT             
0810                                                        MARKER NAME         
  3435767.0700   607286.3300  5321421.6300                  APPROX POSITION XYZ 
LATN  56 55 30.42116   LONE  10 01 25.46099     80.907(m)   COMMENT             
LATN  56 55 30.42116   LONW 349 58 34.53901     80.907(m)   COMMENT             
        1.2019        0.0000        0.0000                  ANTENNA: DELTA H/E/N
| Original slant height(m) :    1.2610   |      _______     COMMENT             
| Offsets used to calculate slant height |     /  GPS  \    COMMENT             
| Antenna Radius (m):           0.1737   |    | ANTENNA |   COMMENT             
| Antenna Vertical Offset (m):  0.0471   |    |_________|   COMMENT             
HEIGHT CALCULATED TO THIS POINT  (ARP*)_______\ |_____|     COMMENT             
*ARP - Antenna Reference Point                /    ^        COMMENT             
 94  3 17  8 30 20.0000000  0  3 19 27 16                            0.000576429
  22236177.29009    116318.98219     80555.51917  22236177.36309  22236181.76407
  20537895.93209     -9285.48119     -6359.86518  20537896.41209  20537900.31808
  21082570.21009     -8144.74919     -5670.72918  21082570.59209  21082574.65808
 94  3 17  8 30 40.0000000  0  3 19 27 16                            0.000562273
  22242210.11709    148025.69609    105262.00907  22242211.19109  22242215.43907
  20537319.44609    -12316.28709     -8721.55208  20537319.74209  20537323.44108
  21082198.66909    -10096.06409     -7191.26008  21082199.25709  21082203.31708
 94  3 17  8 31  0.0000000  0  3 19 27 16                            0.000547901
  22248208.12909    179539.99709    129818.57207  22248208.27209  22248212.36707
  20536721.60109    -15457.30809    -11169.12408  20536722.07409  20536725.67908
  21081811.78109    -12126.76509     -8773.63808  21081812.90609  21081816.81008
 94  3 17  8 31 20.0000000  0  4 19 27 17 16                         0.000537861
  22254174.86509    210895.42209    154251.34307  22254175.03809  22254179.41807
  20536109.74609    -18676.79409    -13677.82508  20536109.66509  20536113.33808
  23671304.53109   -139212.73319    -96913.98916  23671305.23809  23671309.05106
  21081417.65409    -14202.96509    -10391.46108  21081417.87809  21081421.73408
 94  3 17  8 31 40.0000000  0  4 19 27 17 16                         0.000523143
  22260115.26909    242115.81709    178578.88407  22260115.93209  22260120.28807
  20535486.40409    -21948.59909    -16227.29908  20535487.08109  20535490.64108
  23665096.41509   -171826.20609   -122327.08406  23665098.42909  23665103.09706
  21081018.59909    -16297.33009    -12023.44708  21081019.25709  21081023.18208
 94  3 17  8 32  0.0000000  0  4 19 27 17 16                         0.000508283
  22266036.68909    273234.52009    202827.18707  22266037.46609  22266041.89807
  20534862.64709    -25232.03909    -18785.84208  20534862.24309  20534865.72108
  23658900.13909   -204393.12909   -147703.90606  23658900.97409  23658906.29106
  21080624.88909    -18373.24709    -13641.06208  21080624.38209  21080628.23208
 94  3 17  8 32 20.0000000  0  4 19 27 17 16                         0.000493280
  22271940.77909    304268.44509    227009.42407  22271943.32709  22271947.41907
  20534239.27809    -28502.35809    -21334.15608  20534240.15809  20534243.63008
  23652717.33909   -236891.96709   -173027.67406  23652717.02809  23652721.52806
  21080236.51409    -20408.59609    -15227.06308  21080237.03409  21080241.01108
 94  3 17  8 32 40.0000000  0  4 19 27 17 16                         0.000478134
  22277832.02909    335221.00209    251128.26907  22277833.49509  22277837.80307
  20533622.06909    -31751.25409    -23865.79308  20533621.95709  20533625.31708
  23646547.22009   -269320.77109   -198296.87006  23646546.46809  23646550.79606
  21079858.78709    -22393.19109    -16773.51608  21079859.45709  21079863.41408
 94  3 17  8 33  0.0000000  0  4 19 27 17 16                         0.000462873
  22283709.75009    366099.43109    275189.35107  22283709.52109  22283713.83207
  20533007.30809    -34976.83609    -26379.25108  20533008.11709  20533011.44308
  23640389.84609   -301669.37309   -223503.57306  23640390.72809  23640395.19806
  21079494.66209    -24312.47609    -18269.07608  21079494.27609  21079498.20908
 94  3 17  8 33 20.0000000  0  6 19 27 17 28 26 16                   0.000447648
  22289574.40409    396922.99809    299207.68107  22289575.03409  22289579.57207
  20532401.47409    -38164.51009    -28863.17108  20532401.59109  20532404.88708
  23634254.06509   -333919.38109   -248633.45206  23634253.38909  23634258.03206
  24662377.21708    -82087.14818    -56784.35716  24662378.70508  24662382.94506
  22498400.38809   -238666.08519   -158090.45917  22498401.45109  22498405.55107
  21079144.86709    -26147.51609    -19699.00008  21079145.13809  21079149.26908
 94  3 17  8 33 40.0000000  0  7 19 31 27 17 28 26 16                0.000432156
  22295431.19409    427702.03609    323191.31207  22295431.95209  22295436.67007
  24452104.13909   -170817.80919   -114194.18916  24452102.50009  24452107.16806
  20531804.99109    -41299.20909    -31305.81508  20531805.01909  20531808.42308
  23628136.79409   -366057.50909   -273676.15706  23628137.61809  23628141.89406
  24658461.76708   -102656.67008    -72812.54006  24658463.73108  24658467.70906
  22483611.66209   -316386.30309   -218651.66807  22483612.21809  22483615.82307
  21078813.76409    -27889.54609    -21056.44508  21078813.75609  21078817.79208
 94  3 17  8 34  0.0000000  0  7 19 31 27 17 28 26 16                0.000416603
  22301287.05709    458474.74009    347170.00607  22301287.92309  22301292.82707
  24441862.29909   -224645.66809   -156137.96705  24441860.94809  24441862.73105
  20531226.22809    -44340.56709    -33675.72108  20531226.47009  20531229.84608
  23622051.87109   -398038.92509   -298596.73106  23622051.55009  23622057.04606
  24654572.75408   -123109.26408    -88749.64806  24654571.70108  24654575.26006
  22468813.48609   -394155.58409   -279251.08907  22468813.18009  22468817.01807
  21078507.67909    -29501.25009    -22312.32008  21078507.37209  21078511.39008
 94  3 17  8 34 20.0000000  0  7 19 31 27 17 28 26 16                0.000400961
  22307140.22409    489234.15309    371138.35007  22307141.34109  22307146.00207
  24431633.28509   -278382.59409   -198010.91806  24431634.32709  24431637.87806
  20530663.99409    -47295.41609    -35978.21408  20530664.31909  20530667.62308
  23615993.50209   -429869.51809   -323399.79606  23615994.60009  23615999.71106
  24650701.25208   -143450.20408   -104599.78306  24650701.04308  24650705.67106
  22454003.09309   -471978.38209   -339892.23807  22454003.93109  22454007.95407
  21078223.43209    -30990.10309    -23472.48608  21078223.59609  21078227.95808
 94  3 17  8 34 40.0000000  0  7 19 31 27 17 28 26 16                0.000385252
  22312997.18809    520006.08509    395116.44307  22312996.98909  22313001.78707
  24421432.36409   -331997.75709   -239788.96406  24421432.31309  24421435.66906
  20530123.05709    -50135.48609    -38191.27608  20530123.63209  20530127.06808
  23609971.32809   -461520.61309   -348063.00806  23609971.79509  23609976.20306
  24646857.04508   -163651.40808   -120341.00506  24646856.71708  24646861.50806
  22439192.15509   -549816.77109   -400545.53007  22439191.80309  22439195.50407
  21077968.72609    -32332.39409    -24518.44208  21077968.18709  21077972.47708
 94  3 17  8 35  0.0000000  0  7 19 31 27 17 28 26 16                0.000369470
  22318855.68309    550800.83409    419112.32107  22318857.11509  22318861.64207
  24411253.77909   -385482.87209   -281465.69006  24411254.20109  24411257.90406
  20529606.91109    -52846.36509    -40303.66608  20529607.77009  20529611.18708
  23603984.98509   -492974.74809   -372572.73106  23603985.96809  23603990.77906
  24643041.82908   -183697.28908   -135961.19606  24643041.54708  24643046.99006
  22424380.61109   -627649.30909   -461194.26007  22424381.00909  22424384.61907
  21077742.06609    -33518.12409    -25442.40108  21077742.58509  21077746.97208
 94  3 17  8 35 20.0000000  0  7 19 31 27 17 28 26 16                0.000353609
  22324722.52809    581632.19909    443136.73307  22324724.12509  22324728.89107
  24401102.12309   -438826.38309   -323032.06706  24401103.04009  24401107.22806
  20529119.59009    -55409.94409    -42301.27608  20529119.90309  20529123.40808
  23598039.38809   -524223.45409   -396922.37706  23598039.59209  23598044.61406
  24639261.51708   -203569.77708   -151446.24106  24639260.93408  24639264.86706
  22409572.04309   -705461.48509   -521827.12307  22409573.73709  22409577.42407
  21077547.92609    -34539.06409    -26237.95208  21077548.44309  21077552.89608
 94  3 17  8 35 40.0000000  0  7 19 31 27 17 28 26 16                0.000337669
  22330598.97709    612504.57909    467193.10707  22330598.98809  22330603.62107
  24390978.44109   -492028.49609   -364488.26906  24390979.47109  24390983.41406
  20528661.13309    -57820.51409    -44179.65808  20528661.25809  20528664.80908
  23592133.88409   -555261.16009   -421107.59806  23592133.38909  23592138.22306
  24635513.59808   -223258.67508   -166788.26406  24635514.51808  24635518.26906
  22394771.43009   -783247.40009   -582439.53207  22394771.53109  22394775.06207
  21077385.78709    -35393.01009    -26903.37908  21077385.86609  21077390.34708
 94  3 17  8 36  0.0000000  0  7 19 31 27 17 28 26 16                0.000321658
  22336480.18709    643417.03709    491280.70707  22336481.45209  22336486.05607
  24380881.88409   -545086.88909   -405832.47606  24380882.57609  24380886.70506
  20528229.19409    -60085.30409    -45944.44808  20528230.09709  20528233.77908
  23586266.57809   -586091.49809   -445131.24806  23586266.99309  23586272.22206
  24631800.30508   -242762.91308   -181986.42106  24631801.84608  24631806.91006
  22379973.29809   -861004.73509   -643029.67007  22379974.68309  22379978.16107
  21077254.52409    -36082.07009    -27440.32208  21077254.82109  21077259.18708
 94  3 17  8 36 20.0000000  0  7 19 31 27 17 28 26 16                0.000305583
  22342370.83909    674367.66209    515398.04507  22342371.03709  22342375.81107
  24370814.82508   -597996.73308   -447060.93906  24370813.90308  24370818.72706
  20527825.57509    -62211.58709    -47601.31008  20527825.59709  20527829.24808
  23580437.63609   -616721.20609   -468998.56906  23580438.40709  23580443.15906
  24628126.40908   -262081.99808   -197040.25806  24628126.07408  24628130.84906
  22365182.80209   -938729.59609   -703594.50207  22365184.24109  22365187.71607
  21077154.36209    -36607.92509    -27850.09308  21077154.72909  21077159.09508
 94  3 17  8 36 40.0000000  0  7 19 31 27 17 28 26 16                0.000289448
  22348267.26109    705353.81109    539543.06107  22348267.28609  22348272.59607
  24360772.92609   -650761.51109   -488176.35406  24360772.90609  24360777.65506
  20527444.37009    -64207.27909    -49156.41008  20527445.92909  20527449.47908
  23574645.46609   -647156.90809   -492714.69806  23574646.31209  23574651.45006
  24624483.92508   -281214.77608   -211948.95106  24624485.14408  24624490.01106
  22350398.81209  -1016419.22109   -764131.88307  22350400.41609  22350403.86107
  21077084.72409    -36974.49509    -28135.74508  21077084.83309  21077089.33908
 94  3 17  8 37  0.0000000  0  7 19 31 27 17 28 26 16                0.000273260
  22354169.24009    736376.58109    563716.61007  22354171.01509  22354175.98707
  24350759.55908   -703381.07808   -529178.62206  24350760.32508  24350764.99606
  20527090.35909    -66072.69209    -50609.99208  20527091.06009  20527094.59608
  23568891.87309   -677397.93609   -516279.14206  23568892.11409  23568896.85306
  24620881.98909   -300155.07209   -226707.65506  24620881.36109  24620885.85506
  22335620.31309  -1094076.11709   -824643.76007  22335622.63009  22335625.92307
  21077046.26109    -37176.97409    -28293.53408  21077046.47109  21077050.85808
 94  3 17  8 37 20.0000000  0  8  2 19 31 27 17 28 26 16             0.000257067
  22824107.61209   -323217.00819   -229286.05917  22824108.05709  22824112.49607
  22360079.23109    767433.71709    587916.94407  22360080.94509  22360086.08207
  24340774.62709   -755856.29209   -570068.40106  24340774.49809  24340779.13206
  20526758.25009    -67820.16709    -51971.67508  20526758.57209  20526762.12908
  23563172.20009   -707454.28209   -539699.68706  23563172.05209  23563177.09606
  24617311.04209   -318911.92609   -241323.41806  24617312.25909  24617316.70106
  22320847.85909  -1171712.51209   -885139.66107  22320848.87409  22320852.40707
  21077036.95509    -37221.37409    -28328.14608  21077037.95309  21077042.32508
 94  3 17  8 37 40.0000000  0  8  2 19 31 27 17 28 26 16             0.000240859
  22808204.49209   -406794.21309   -294411.15307  22808203.93209  22808208.24307
  22365998.40109    798532.27809    612149.55307  22365998.97009  22366003.70507
  24330818.27809   -808172.88509   -610834.60106  24330818.89509  24330823.37706
  20526448.48109    -69442.65609    -53235.96508  20526449.86009  20526453.48708
  23557488.39009   -737310.69409   -562964.42206  23557490.80109  23557495.54906
  24613777.55409   -337477.01709   -255789.78906  24613779.03509  24613783.23606
  22306082.04209  -1249317.97209   -945611.45407  22306081.07809  22306084.62307
  21077062.23509    -37092.52409    -28227.75708  21077062.45909  21077066.87208
 94  3 17  8 38  0.0000000  0  8  2 19 31 27 17 28 26 16             0.000224616
  22792311.82209   -490308.68809   -359487.36707  22792311.58609  22792315.82207
  22371923.76209    829672.64109    636414.73907  22371924.77609  22371929.85107
  24320893.04408   -860322.66208   -651470.79406  24320894.37808  24320900.02206
  20526164.98109    -70934.56909    -54398.50908  20526165.99409  20526169.59808
  23551846.44009   -766961.50309   -586068.95306  23551848.28209  23551853.01706
  24610282.44909   -355847.75109   -270104.68006  24610283.71609  24610287.77406
  22291320.87609  -1326881.30109  -1006050.41707  22291321.29209  22291324.79907
  21077121.04209    -36779.66109    -27983.98608  21077122.06309  21077126.36808
 94  3 17  8 38 20.0000000  0  8  2 19 31 27 17 28 26 16             0.000208325
  22776428.91609   -573764.95809   -424518.22907  22776430.38709  22776434.81007
  22377856.55909    860848.42609    660707.52507  22377857.52209  22377862.41507
  24311003.18109   -912306.21809   -691977.46806  24311002.77109  24311008.04806
  20525906.46909    -72290.62909    -55455.19108  20525907.84909  20525911.66708
  23546245.40209   -796409.41809   -609015.37806  23546244.04209  23546249.12006
  24606824.87809   -374028.48609   -284271.48606  24606823.74209  24606828.29506
  22276566.83809  -1404406.51809  -1066459.68107  22276568.73109  22276572.52307
  21077216.37009    -36281.87509    -27596.11808  21077216.72509  21077221.08108
 94  3 17  8 38 40.0000000  0  8  2 19 31 27 17 28 26 16             0.000191981
  22760559.76909   -657166.57709   -489506.50507  22760559.52609  22760564.11107
  22383797.35809    892062.14009    685029.86607  22383797.41509  22383802.17707
  24301142.96608   -964118.01908   -732350.30606  24301143.49908  24301147.83706
  20525676.90609    -73500.34009    -56397.83608  20525677.49509  20525681.42208
  23540680.58509   -825647.64609   -631798.40506  23540680.35609  23540685.94206
  24603399.38909   -392017.91909   -298289.21406  24603400.52809  24603405.07006
  22261823.24309  -1481892.79909  -1126838.60407  22261823.68209  22261827.40207
  21077346.43609    -35593.69409    -27059.88608  21077347.80309  21077352.13008
 94  3 17  8 39  0.0000000  0  8  2 19 31 27 17 28 26 16             0.000175571
  22744698.87909   -740511.15809   -554450.33107  22744699.52909  22744704.23707
  22389743.62409    923313.17909    709381.28607  22389744.32009  22389749.34507
  24291316.40908  -1015752.75708   -772585.18306  24291316.94508  24291323.15706
  20525476.69709    -74552.71009    -57217.87808  20525477.29709  20525481.24508
  23535156.45709   -854669.64209   -654412.95106  23535158.10009  23535163.01906
  24600011.33309   -409821.61009   -312162.23706  24600012.42009  24600017.14906
  22247082.98509  -1559343.71709  -1187189.96807  22247085.00209  22247088.92207
  21077515.89509    -34711.30409    -26372.32608  21077515.66609  21077519.97308
 94  3 17  8 39 20.0000000  0  8  2 19 31 27 17 28 26 16             0.000159105
  22728852.21909   -823791.40109   -619344.02507  22728852.02609  22728856.86907
  22395698.96909    954610.32709    733768.63507  22395699.82209  22395704.77107
  24281525.25908  -1067202.14408   -812675.61806  24281527.46708  24281532.38406
  20525308.34809    -75438.24209    -57907.91808  20525308.71509  20525312.64508
  23529679.44209   -883465.45809   -676851.25706  23529678.21109  23529683.16806
  24596661.96009   -427436.47609   -325888.07806  24596660.66909  24596665.09406
  22232353.11409  -1636754.54609  -1247510.09407  22232354.14809  22232357.93007
  21077720.90709    -33628.43809    -25528.55408  21077721.76609  21077726.19108
 94  3 17  8 39 40.0000000  0  8  2 19 31 27 17 28 26 16             0.000142582
  22713015.61209   -907005.59309   -684186.25207  22713016.78109  22713021.62107
  22401661.32309    985951.59509    758190.36607  22401664.06709  22401668.85107
  24271771.68208  -1118463.42408   -852619.48506  24271772.49708  24271777.68306
  20525172.01309    -76152.24709    -58464.30008  20525172.91209  20525176.73608
  23524242.24609   -912036.67109   -699114.53706  23524241.34909  23524246.39306
  24593343.71209   -444857.36209   -339462.75706  24593345.22109  24593349.28306
  22217629.26309  -1714121.01509  -1307795.65707  22217631.99309  22217635.79307
  21077965.92909    -32344.75909    -24528.30208  21077966.27709  21077970.59508
 94  3 17  8 40  0.0000000  0  8  2 19 31 27 17 28 26 16             0.000125998
  22697192.86309   -990154.69909   -748977.76007  22697194.05809  22697199.06007
  22407635.32309   1017333.54209    782643.79407  22407636.08809  22407640.81907
  24262050.91508  -1169545.68008   -892423.85506  24262051.72408  24262057.13106
  20525069.02509    -76697.21209    -58888.96108  20525069.15209  20525073.08508
  23518845.33009   -940388.61009   -721206.97206  23518846.33709  23518850.78706
  24590064.53709   -462088.33409   -352889.49806  24590066.06109  24590071.20906
  22202917.62709  -1791445.34309  -1368048.38307  22202917.46109  22202921.28707
  21078246.57309    -30867.84609    -23377.47908  21078247.41009  21078251.62108
 94  3 17  8 40 20.0000000  0  8  2 19 31 27 17 28 26 16             0.000109356
  22681385.27909  -1073231.26809   -813712.74807  22681385.08009  22681389.83507
  22413617.75809   1048763.53709    807134.66007  22413616.86209  22413621.84107
  24252364.18508  -1220449.22708   -932088.96306  24252364.93408  24252370.25206
  20524996.95009    -77073.09509    -59181.87208  20524997.55709  20525001.56708
  23513492.55209   -968523.70409   -743130.42006  23513492.67409  23513497.71106
  24586822.34209   -479131.50409   -366169.92806  24586823.30709  24586827.33306
  22188209.99609  -1868732.52909  -1428272.16907  22188210.60309  22188214.22607
  21078561.85609    -29209.09009    -22084.95908  21078562.97709  21078567.30308
 94  3 17  8 40 40.0000000  0  8  2 19 31 27 17 28 26 16             0.000092662
  22665588.98609  -1156232.05109   -878388.68607  22665590.72609  22665595.66007
  22419606.81409   1080250.04309    831669.55907  22419608.31209  22419613.40707
  24242710.70009  -1271175.25509   -971615.73806  24242712.17509  24242717.46606
  20524955.96209    -77287.36509    -59348.85308  20524956.84209  20524960.84408
  23508178.27209   -996441.84209   -764884.82306  23508179.95509  23508185.13406
  24583615.83209   -495987.04309   -379304.13007  24583616.46909  24583620.50007
  22173510.74509  -1945977.37409  -1488462.96207  22173511.36409  22173515.31307
  21078912.27709    -27373.24409    -20654.44808  21078912.39209  21078916.79708
 94  3 17  8 41  0.0000000  0  8  2 19 31 27 17 28 26 16             0.000075918
  22649810.87209  -1239156.31909   -943004.99707  22649810.72909  22649815.76107
  22425608.77209   1111785.93009    856242.93607  22425609.64109  22425614.30607
  24233089.00209  -1321740.88009  -1011017.52806  24233090.30009  24233095.64406
  20524943.49709    -77353.69709    -59400.55608  20524944.33409  20524948.20108
  23502905.43809  -1024152.22309   -786477.32806  23502906.73109  23502911.16106
  24580441.03709   -512660.91009   -392296.75107  24580442.95009  24580447.17907
  22158820.32609  -2023181.75109  -1548622.21807  22158820.02609  22158823.88607
  21079292.58609    -25372.40409    -19095.37308  21079293.25809  21079297.42508
 94  3 17  8 41 20.0000000  0  8  2 19 31 27 17 28 26 16             0.000059130
  22634046.23509  -1322000.61109  -1007558.99007  22634045.97709  22634050.92607
  22431618.28109   1143371.56509    880855.08007  22431620.32209  22431624.83707
  24223496.67809  -1372152.21509  -1050299.10006  24223496.65109  24223502.54006
  20524957.52709    -77281.11009    -59344.00808  20524958.25009  20524962.05408
  23497672.49509  -1051657.18609   -807909.77206  23497672.43809  23497677.70206
  24577304.31309   -529147.45609   -405143.45207  24577305.55309  24577309.35607
  22144135.53409  -2100347.43909  -1608751.33207  22144135.76609  22144139.43607
  21079703.50709    -23206.50209    -17407.67608  21079705.38109  21079709.48308
 94  3 17  8 41 40.0000000  0  8  2 19 31 27 17 28 26 16             0.000042305
  22618298.18009  -1404755.96809  -1072043.68007  22618298.21509  22618303.22107
  22437641.57909   1175014.86709    905512.16407  22437641.81209  22437646.37007
  24213934.63809  -1422397.83909  -1089451.55206  24213935.29209  24213941.39306
  20524997.93709    -77065.87209    -59176.30608  20524999.18009  20525003.07808
  23492479.91109  -1078951.99409   -829178.45606  23492478.93609  23492483.25106
  24574205.13309   -545435.26009   -417835.26807  24574205.99209  24574210.33707
  22129457.37109  -2177463.82009  -1668842.02307  22129461.15009  22129464.76507
  21080149.64809    -20867.78809    -15585.32008  21080150.33209  21080154.55808
 94  3 17  8 42  0.0000000  0  8  2 19 31 27 17 28 26 16             0.000025446
  22602566.72909  -1487420.45209  -1136457.55607  22602567.57709  22602572.93307
  22443672.76809   1206713.70409    930212.51807  22443673.80609  22443678.60707
  24204403.55908  -1472478.45208  -1128475.39906  24204404.73308  24204411.24906
  20525065.95509    -76712.09109    -58900.64908  20525066.46709  20525070.54108
  23487324.32609  -1106033.86509   -850281.21606  23487325.18409  23487330.20406
  24571142.27309   -561529.00709   -430375.89807  24571143.80309  24571147.74207
  22114794.84309  -2254529.47009  -1728893.18407  22114795.90509  22114799.61307
  21080626.69609    -18356.70309    -13628.65108  21080628.03809  21080632.43508
 94  3 17  8 42 20.0000000  0  8  2 19 31 27 17 28 26 16             0.000008563
  22586856.49209  -1569982.75509  -1200791.81507  22586856.37709  22586861.51107
  22449717.61609   1238474.45709    954961.11707  22449717.57709  22449722.59707
  24194908.78809  -1522378.52209  -1167358.57306  24194910.12609  24194915.22406
  20525159.80709    -76215.76809    -58513.92308  20525160.93209  20525165.00808
  23482213.19609  -1132896.17309   -871212.86806  23482213.41109  23482218.44506
  24568117.74309   -577424.58809   -442762.11807  24568118.89109  24568123.30007
  22100140.87109  -2331537.57209  -1788899.50007  22100141.47209  22100145.36407
  21081140.97209    -15666.30709    -11532.25708  21081140.11309  21081144.35808
 94  3 17  8 42 40.0000000  0  8  2 19 31 27 17 28 26 16            -0.000008345
  22571163.34709  -1652447.03109  -1265049.68807  22571163.96309  22571169.13307
  22455770.10209   1270286.14809    979749.40507  22455771.19109  22455776.23307
  24185449.69509  -1572096.58009  -1206099.92106  24185449.22709  24185454.66506
  20525280.67209    -75583.47409    -58021.24708  20525281.29409  20525285.34708
  23477142.38009  -1159539.95509   -891974.25406  23477143.81409  23477148.24006
  24565129.84209   -593124.50809   -454995.82407  24565131.22909  24565135.39907
  22085496.67109  -2408489.83309  -1848862.30207  22085497.95409  22085501.64707
  21081686.48109    -12790.68309     -9291.52808  21081687.46709  21081691.65408
 94  3 17  8 43  0.0000000  0  8  2 19 31 27 17 28 26 16            -0.000025281
  22555488.64709  -1734814.48909  -1329232.11907  22555489.94809  22555495.04607
  22461830.76309   1302135.49509   1004567.04607  22461832.00809  22461837.03707
  24176020.35908  -1621634.45508  -1244700.84606  24176021.16608  24176027.21506
  20525426.98109    -74814.00909    -57421.68508  20525427.79309  20525431.87108
  23472115.32009  -1185962.33709   -912563.13406  23472115.47909  23472120.07806
  24562180.78809   -608630.72209   -467078.57306  24562180.81009  24562184.43506
  22070864.20709  -2485390.76509  -1908785.10907  22070864.51509  22070867.92607
  21082270.11109     -9723.60309     -6901.61308  21082270.99609  21082275.32508
 94  3 17  8 43 20.0000000  0  8  2 19 31 27 17 28 26 16             0.000957747
  22839624.47409   -241670.53609   -165743.31707  22839625.73609  22839630.99807
  22767689.87309   2909431.97709   2257005.82607  22767690.49009  22767695.49807
  24466422.84509    -95568.87309    -55558.82806  24466422.62309  24466428.90706
  20825392.32109   1501510.41309   1170883.04108  20825392.35109  20825396.36508
  23766920.63009    363252.25809    294617.05706  23766920.89309  23766925.79806
  24859055.83209    951466.46309    748581.54206  24859057.47709  24859061.68906
  22356029.86009   -986829.90809   -741075.35307  22356031.19709  22356034.70707
  21382682.09009   1568950.28409   1223233.86408  21382682.76109  21382686.82508
 94  3 17  8 43 40.0000000  0  8  2 19 31 27 17 28 26 16             0.000940740
  22823985.98209   -323860.96509   -229787.80207  22823985.55609  22823990.66407
  22773761.75109   2941348.01409   2281875.42707  22773763.76709  22773768.94707
  24457066.62108   -144729.16508    -93865.55306  24457067.93208  24457073.04106
  20825591.70909   1502561.07309   1171701.71508  20825592.39109  20825596.38908
  23761975.34709    337269.26909    274370.57106  23761976.70809  23761980.96306
  24856175.94509    936334.10409    736790.07106  24856177.69509  24856182.03606
  22341413.33009  -1063639.31009   -800926.83707  22341414.72209  22341418.41007
  21383338.77809   1572395.04209   1225918.07208  21383338.23509  21383342.19308
 94  3 17  8 44  0.0000000  0  8  2 19 31 27 17 28 26 16             0.000923692
  22808360.26209   -405966.06609   -293765.80207  22808361.35209  22808366.69607
  22779842.85409   2973296.86509   2306770.59607  22779843.69909  22779848.69007
  24447747.88509   -193698.26209   -132023.27106  24447749.30909  24447754.89006
  20825818.87409   1503756.22409   1172632.97808  20825819.63809  20825823.62708
  23757073.67909    311507.88709    254296.76206  23757074.75709  23757078.74506
  24853333.03609    921388.96909    725144.50506  24853333.51409  24853337.63606
  22326808.25509  -1140392.66109   -860734.64807  22326809.27109  22326812.52207
  21384028.71509   1576022.87209   1228744.92808  21384028.51809  21384032.60608
 94  3 17  8 44 20.0000000  0  8  2 19 31 27 17 28 26 16             0.000906596
  22792750.41409   -487997.53409   -357686.42007  22792751.22109  22792756.54107
  22785928.19409   3005274.67109   2331688.33107  22785928.86409  22785933.82307
  24438466.35409   -242483.04509   -170037.36606  24438466.18109  24438470.84806
  20826073.38809   1505091.84209   1173673.69508  20826073.99009  20826077.80408
  23752212.23909    285960.86709    234389.99406  23752213.01109  23752217.54706
  24850522.99409    906624.27009    713639.51706  24850523.92209  24850528.00506
  22312212.61109  -1217099.25309   -920506.02407  22312212.53609  22312215.79607
  21384751.39409   1579825.30409   1231707.83908  21384752.24909  21384756.27908
 94  3 17  8 44 40.0000000  0  8  2 19 31 27 17 28 26 16             0.000889442
  22777154.32509   -569964.91409   -421557.10607  22777153.72809  22777158.84607
  22792018.22309   3037277.33409   2356625.43707  22792018.78609  22792023.58207
  24429212.47009   -291097.91809   -207919.08006  24429215.13209  24429220.45606
  20826353.79309   1506563.72409   1174820.59608  20826354.17909  20826357.81808
  23747392.13009    260623.13509    214646.29106  23747391.20409  23747396.24206
  24847748.88209    892038.52809    702273.95606  24847748.62609  24847752.47906
  22297621.79609  -1293765.23109   -980245.75207  22297623.29509  22297626.64507
  21385507.11909   1583795.56909   1234801.53508  21385507.55009  21385511.88908
 94  3 17  8 45  0.0000000  0  8  2 19 31 27 17 28 26 16             0.000872229
  22761568.87809   -651864.90709   -485375.27407  22761568.64109  22761573.71507
  22798114.78009   3069311.97209   2381587.45407  22798114.79409  22798120.00407
  24419993.89909   -339547.28409   -245671.82206  24419995.18409  24420000.34506
  20826660.36609   1508175.88309   1176076.80708  20826661.08509  20826664.64508
  23742608.63509    235493.44109    195064.69006  23742609.22509  23742613.78806
  24845006.39009    877638.38209    691053.03906  24845008.73009  24845012.10806
  22283041.39009  -1370386.87609  -1039950.93307  22283042.84809  22283046.23107
  21386294.75409   1587934.75809   1238026.85208  21386295.16409  21386299.68008
 94  3 17  8 45 20.0000000  0  8  2 19 31 27 17 28 26 16             0.000854949
  22745994.83409   -733705.83909   -549147.42307  22745994.72409  22745999.66407
  22804215.34009   3101374.85909   2406571.48707  22804215.96309  22804221.24507
  24410803.84009   -387843.23909   -283305.00506  24410805.13509  24410810.38906
  20826992.25809   1509919.61009   1177435.53408  20826992.94409  20826996.60908
  23737861.07509    210555.00909    175632.13706  23737863.55609  23737868.22006
  24842300.24009    863417.15709    679971.51206  24842301.81609  24842306.28106
  22268468.24009  -1446973.70309  -1099628.98407  22268469.08309  22268472.46707
  21387108.61809   1592223.06909   1241368.37308  21387111.22909  21387115.52608
 94  3 17  8 45 40.0000000  0  8  2 19 31 27 17 28 26 16             0.000837620
  22730436.21609   -815464.22309   -612855.24907  22730436.71809  22730441.47307
  22810325.38009   3133489.61309   2431595.93707  22810327.43109  22810332.61407
  24401647.86609   -435964.98409   -320802.45106  24401647.50209  24401652.36806
  20827352.62409   1511812.53909   1178910.52208  20827353.13909  20827356.83008
  23733157.87409    185830.00809    156365.88406  23733158.78109  23733163.73806
  24839634.58609    849404.19109    669052.27206  24839635.64109  24839639.58906
  22253905.34609  -1523499.14909  -1159259.20607  22253906.70109  22253910.26607
  21387959.81209   1596683.13109   1244843.72808  21387960.00209  21387964.36608
 94  3 17  8 46  0.0000000  0  8  2 19 31 27 17 28 26 16             0.000820249
  22714895.33809   -897129.68609   -676490.66907  22714896.24209  22714901.16307
  22816447.24309   3165657.76309   2456661.98507  22816449.08109  22816453.87307
  24392523.27009   -483907.85609   -358160.52206  24392524.54709  24392529.90006
  20827741.71509   1513856.09009   1180502.87808  20827741.95309  20827745.70308
  23728493.51009    161322.92609    137269.45406  23728494.60909  23728499.45106
  24837008.39309    835602.45809    658297.66606  24837009.55109  24837013.42606
  22239354.01609  -1599966.37909  -1218844.06607  22239355.37909  22239358.80107
  21388842.21009   1601324.95709   1248460.71508  21388843.31509  21388847.74408
 94  3 17  8 46 20.0000000  0  8  2 19 31 27 17 28 26 16             0.000802834
  22699373.72909   -978707.42409   -740057.73107  22699372.54109  22699377.41707
  22822577.48609   3197871.81409   2481763.81107  22822579.05809  22822583.88607
  24383434.69909   -531678.85709   -395384.64706  24383434.40009  24383439.24106
  20828156.71309   1516041.15909   1182205.50808  20828157.80609  20828161.46308
  23723870.93809    137026.74009    118337.35706  23723871.53109  23723876.20406
  24834420.44809    822000.18609    647698.47206  24834420.49809  24834424.61906
  22224813.66009  -1676389.52709  -1278394.57707  22224812.86509  22224816.19007
  21389760.45509   1606145.70109   1252217.11908  21389760.82609  21389765.06408
 94  3 17  8 46 40.0000000  0  8  2 19 31 27 17 28 26 16             0.000785381
  22683864.99809  -1060190.63909   -803551.13707  22683866.77209  22683871.77407
  22828715.69409   3230131.56609   2506901.24107  22828717.83409  22828722.94407
  24374376.20809   -579273.83409   -432471.62006  24374376.76609  24374381.53506
  20828599.56109   1518369.09709   1184019.46508  20828600.79509  20828604.38508
  23719288.23409    112946.59109     99573.58006  23719289.02709  23719294.03806
  24831868.89809    808599.75209    637256.59506  24831871.05309  24831875.01406
  22210276.97009  -1752762.73709  -1337906.17107  22210279.30609  22210282.85607
  21390711.13309   1611149.04809   1256115.81408  21390712.81509  21390717.12308
 94  3 17  8 47  0.0000000  0  8  2 19 31 27 17 28 26 16             0.000767891
  22668378.92509  -1141570.40509   -866963.93207  22668380.77109  22668385.71507
  22834864.48809   3262439.04809   2532075.86807  22834865.87609  22834870.70907
  24365354.80509   -626681.89609   -469412.96106  24365355.53009  24365360.90706
  20829070.21209   1520845.36209   1185949.00208  20829071.79009  20829075.54608
  23714748.38209     89088.17709     80982.59606  23714749.35309  23714753.51706
  24829358.55009    795404.91909    626974.95106  24829360.21609  24829364.02406
  22195755.51409  -1829078.54109  -1397373.03207  22195756.87409  22195760.39907
  21391700.15309   1616342.04909   1260162.28908  21391701.02609  21391705.45208
 94  3 17  8 47 20.0000000  0  8  2 19 31 27 17 28 26 16             0.000750362
  22652910.91109  -1222854.36009   -930302.07607  22652912.97809  22652917.82507
  22841020.09009   3294782.88309   2557278.81607  22841020.67109  22841025.36007
  24356366.97008   -673901.69308   -506207.57306  24356369.46908  24356375.34206
  20829569.81109   1523468.02609   1187992.61508  20829570.79509  20829574.57608
  23710250.34709     65450.11309     62563.32806  23710250.99809  23710255.55306
  24826884.87109    782404.87709    616845.06106  24826885.93909  24826890.25906
  22181243.84509  -1905342.50209  -1456799.49807  22181244.25009  22181247.73507
  21392722.69309   1621714.81309   1264348.84008  21392723.50409  21392727.93808
 94  3 17  8 47 40.0000000  0  8  2 19 31 27 17 28 26 16             0.000732792
  22637463.06809  -1304047.88609   -993569.75107  22637462.30509  22637467.16707
  22847179.64809   3327156.23609   2582504.76807  22847181.14609  22847185.87407
  24347418.98109   -720931.28309   -542853.98206  24347419.76909  24347425.59006
  20830095.37409   1526229.09009   1190144.07008  20830096.27709  20830100.15408
  23705794.76009     42035.03609     44317.81106  23705794.69209  23705800.21006
  24824446.50209    769587.19909    606857.28406  24824446.68509  24824451.28506
  22166740.61509  -1981559.65809  -1516189.48907  22166740.34309  22166743.96607
  21393779.74709   1627269.28609   1268676.98408  21393780.59009  21393784.85108
 94  3 17  8 48  0.0000000  0  8  2 19 31 27 17 28 26 16             0.000715180
  22622029.59109  -1385151.84209  -1056767.63107  22622028.86009  22622033.61707
  22853346.40809   3359558.72609   2607753.42607  22853347.09809  22853351.89707
  24338506.22109   -767771.95509   -579353.19706  24338507.04909  24338512.17106
  20830647.34609   1529128.84309   1192403.59708  20830648.18309  20830651.94908
  23701381.02909     18842.37909     26245.60806  23701381.74209  23701386.52606
  24822038.37709    756944.95309    597006.18606  24822040.77009  24822043.70606
  22152244.58309  -2057730.37409  -1575543.29207  22152245.42809  22152249.08707
  21394871.92009   1633003.93009   1273145.52008  21394871.74109  21394876.13908
 94  3 17  8 48 20.0000000  0  8  2 19 31 27 17 28 26 16             0.000697528
  22606614.74709  -1466156.70609  -1119888.29907  22606614.30209  22606618.95007
  22859520.81609   3392003.22709   2633034.81107  22859521.32109  22859526.33007
  24329630.82609   -814414.95309   -615698.38106  24329631.35109  24329636.31006
  20831227.71409   1532179.92109   1194781.03808  20831228.90309  20831232.74008
  23697010.64109     -4116.44009      8355.59906  23697013.01609  23697017.84406
  24819669.48309    744487.52709    587299.10506  24819669.86109  24819674.04206
  22137760.14609  -2133836.20609  -1634846.54107  22137763.24709  22137766.60407
  21395998.03209   1638927.24109   1277761.06808  21395998.94909  21396003.27208
 94  3 17  8 48 40.0000000  0  8  2 19 31 27 17 28 26 16             0.000679824
  22591214.96909  -1547077.89909  -1182943.76607  22591215.33409  22591220.13407
  22865697.46609   3424470.66109   2658334.06907  22865699.71309  22865704.33207
  24320787.02909   -860882.85009   -651907.12906  24320788.16809  24320793.55706
  20831835.30009   1535366.46009   1197264.03408  20831835.17509  20831839.12208
  23692685.01509    -26858.76909     -9365.70206  23692685.76509  23692689.98006
  24817332.50809    732201.77909    577725.77906  24817331.44909  24817335.91106
  22123288.50409  -2209888.28609  -1694107.90507  22123290.93909  22123294.43307
  21397157.51109   1645020.45409   1282509.00508  21397158.52509  21397162.75508
 94  3 17  8 49  0.0000000  0  8  2 19 31 27 17 28 26 16             0.000662074
  22575833.17709  -1627904.71109  -1245925.69307  22575834.37209  22575839.26807
  22871880.93709   3456964.72109   2683654.08207  22871882.97409  22871888.06907
  24311980.55109   -907170.06809   -687975.07606  24311980.38509  24311985.38306
  20832466.90709   1538690.99109   1199854.55408  20832468.00809  20832471.83708
  23688397.26509    -49386.24709    -26919.58206  23688398.29109  23688403.45506
  24815028.48209    720095.94709    568292.66206  24815028.94109  24815032.35706
  22108828.15809  -2285882.46009  -1753324.14607  22108830.02409  22108833.42207
  21398350.80709   1651288.14209   1287392.90008  21398351.28109  21398355.44608
 94  3 17  8 49 20.0000000  0  8  2 19 31 27 17 28 26 16             0.000644277
  22560472.22209  -1708635.80809  -1308833.03407  22560471.82909  22560476.64007
  22878071.19909   3489481.11609   2708991.49007  22878070.85209  22878075.83707
  24303205.06009   -953280.76009   -723905.48706  24303205.91409  24303211.26206
  20833125.62509   1542149.54409   1202549.50908  20833126.12609  20833130.10708
  23684152.14109    -71701.46109    -44308.07606  23684151.80609  23684156.92306
  24812756.44009    708167.71109    558997.93406  24812759.32309  24812762.51506
  22094376.59309  -2361822.63909  -1812498.31307  22094379.14109  22094382.38907
  21399575.82009   1657730.80409   1292413.14108  21399577.34909  21399581.40208
 94  3 17  8 49 40.0000000  0  8  2 19 31 27 17 28 26 16             0.000626445
  22545129.17209  -1789260.29409  -1371657.30807  22545129.56709  22545134.32307
  22884262.78109   3522026.16209   2734351.23007  22884264.01609  22884268.61807
  24294462.88609   -999214.84009   -759698.27206  24294464.01609  24294469.37006
  20833809.29709   1545741.15709   1205348.14708  20833809.62209  20833813.55708
  23679944.16909    -93801.78009    -61529.11806  23679946.29809  23679951.22006
  24810522.72009    696423.33009    549846.47606  24810523.83309  24810528.13306
  22079938.03309  -2437707.23109  -1871629.16607  22079938.59409  22079942.05807
  21400838.34609   1664354.78409   1297574.66708  21400837.86509  21400842.09008
 94  3 17  8 50  0.0000000  0  8  2 19 31 27 17 28 26 16             0.000608580
  22529809.61309  -1869766.58309  -1434389.47407  22529809.76409  22529814.49607
  22890463.42509   3554610.17509   2759741.33407  22890464.70009  22890469.57207
  24285757.16509  -1044966.88809   -795349.21706  24285758.08209  24285763.80006
  20834519.75709   1549477.99509   1208259.94808  20834520.92609  20834524.80208
  23675781.38109   -115684.07609    -78580.26506  23675782.35409  23675787.10806
  24808325.82109    684880.92109    540852.36506  24808327.54909  24808332.90706
  22065509.67709  -2513523.23309  -1930706.57007  22065511.37809  22065514.73607
  21402134.00509   1671165.09209   1302881.38408  21402134.00309  21402138.12808
 94  3 17  8 50 20.0000000  0  8  2 19 31 27 17 28 26 16             0.000590682
  22514512.47009  -1950150.63809  -1497026.39707  22514513.14709  22514517.97507
  22896671.54709   3587232.91009   2785161.60907  22896672.68909  22896677.47907
  24277086.27509  -1090533.96409   -830856.03106  24277087.84509  24277092.24506
  20835260.12509   1553365.17309   1211288.89608  20835260.42809  20835264.32008
  23671659.05309   -137347.77009    -95461.07906  23671660.18509  23671665.03206
  24806168.69908    673545.30908    532019.44105  24806170.03108  24806173.55505
  22051096.32109  -2589266.72809  -1989727.47607  22051097.92409  22051101.27007
  21403466.21109   1678163.57509   1308334.73008  21403465.62409  21403469.77208
 94  3 17  8 50 40.0000000  0  8  2 19 31 27 17 28 26 16             0.000572756
  22499242.28409  -2030398.91609  -1559557.51807  22499242.34209  22499247.29507
  22902886.93509   3619900.16109   2810616.57507  22902888.71609  22902893.91307
  24268454.32209  -1135901.63509   -866207.47106  24268454.05209  24268459.70506
  20836031.18009   1557415.28709   1214444.80808  20836031.03209  20836035.08508
  23667580.62409   -158782.09609   -112163.15706  23667581.45609  23667585.82106
  24804052.69808    662427.86108    523356.50606  24804054.38908  24804060.23706
  22036699.18109  -2664930.12809  -2048685.97007  22036699.62609  22036703.11607
  21404833.87709   1685357.23009   1313940.15708  21404834.43509  21404838.74808
 94  3 17  8 51  0.0000000  0  8  2 19 31 27 17 28 26 16             0.000554809
  22483997.76909  -2110504.95409  -1621977.80507  22483998.45309  22484003.49707
  22909113.43509   3652620.53309   2836112.92407  22909115.25009  22909120.78707
  24259861.76509  -1181053.29609   -901390.59206  24259861.71909  24259866.47806
  20836832.45809   1561635.64209   1217733.37408  20836834.20609  20836838.24408
  23663546.63509   -179978.49009   -128679.82606  23663547.93909  23663552.41606
  24801981.47408    651538.24608    514871.03305  24801981.93108  24801987.29005
  22022317.31209  -2740507.80309  -2107577.66707  22022317.54209  22022320.92707
  21406240.43709   1692748.88909   1319699.87008  21406241.03009  21406245.22808
 94  3 17  8 51 20.0000000  0  8  2 19 31 27 17 28 26 16             0.000536834
  22468778.71209  -2190478.50509  -1684294.85207  22468779.95109  22468785.01407
  22915351.91509   3685394.01409   2861650.65907  22915351.98909  22915357.35607
  24251310.28009  -1225988.24009   -936404.86306  24251311.79809  24251315.86806
  20837668.11109   1566026.67309   1221154.93408  20837669.78309  20837673.90008
  23659558.87509   -200934.27309   -145009.01206  23659559.80109  23659564.55906
  24799950.77008    640868.54108    506556.94305  24799951.58008  24799956.78605
  22007949.94509  -2816002.87009  -2166404.99407  22007951.21109  22007954.66507
  21407683.85209   1700333.14309   1325609.65908  21407684.51909  21407688.61308
 94  3 17  8 51 40.0000000  0  8  2 19 31 27 17 28 26 16             0.000518812
  22453581.15309  -2270348.76509  -1746531.41607  22453581.23109  22453586.40007
  22921595.21209   3718203.67409   2887216.58707  22921595.56509  22921600.94307
  24242795.67409  -1270728.53809   -971267.45006  24242797.41109  24242802.55006
  20838533.04809   1570567.25809   1224693.03208  20838533.82909  20838537.89308
  23655611.64709   -221672.38409   -161168.58906  23655613.59509  23655618.39906
  24797958.04808    630397.83808    498397.93205  24797959.65608  24797964.45905
  21993594.94209  -2891431.99709  -2225180.93907  21993597.80409  21993601.21907
  21409157.99809   1708084.38909   1331649.57108  21409159.45909  21409163.87408
 94  3 17  8 52  0.0000000  0  8  2 19 31 27 17 28 26 16             0.000500741
  22438402.52309  -2350116.72009  -1808688.26007  22438401.76809  22438407.06307
  22927846.63209   3751058.91309   2912818.02907  22927847.69209  22927853.00407
  24234322.77109  -1315263.10809  -1005969.74206  24234323.19009  24234327.36606
  20839427.77809   1575264.45309   1228353.16208  20839427.85709  20839431.82308
  23651707.90109   -242186.76109   -177153.81806  23651709.82409  23651714.53506
  24796002.55508    620129.64708    490396.69705  24796005.50308  24796010.24405
  21979258.58909  -2966782.65909  -2283895.74607  21979259.04709  21979262.36707
  21410668.48809   1716008.29609   1337824.02208  21410667.27609  21410671.77708
 94  3 17  8 52 20.0000000  0  8  2 19 31 27 17 28 26 16             0.000482619
  22423238.97609  -2429793.68809  -1870774.20507  22423239.67209  22423245.02107
  22934104.87909   3783948.05009   2938445.88607  22934106.51609  22934111.83307
  24225886.15009  -1359594.70909  -1040513.87906  24225886.99209  24225891.05006
  20840348.78609   1580107.35009   1232126.82808  20840349.34609  20840353.39208
  23647847.80709   -262479.30209   -192966.20006  23647848.39509  23647853.01106
  24794088.07008    610049.45408    482541.97605  24794086.95508  24794092.40205
  21964933.34609  -3042062.07109  -2342555.03207  21964933.64609  21964937.13807
  21412208.83909   1724101.89109   1344130.69708  21412207.39409  21412211.93008
 94  3 17  8 52 40.0000000  0  8  2 19 31 27 17 28 26 16             0.000464450
  22408093.27509  -2509383.55909  -1932792.28107  22408094.12209  22408099.38107
  22940367.58709   3816861.23809   2964092.47807  22940369.38709  22940374.95307
  24217487.38709  -1403728.94509  -1074904.23106  24217488.31909  24217492.79006
  20841294.34809   1585080.72509   1236002.16408  20841295.61509  20841299.61908
  23644027.43509   -282552.46409   -208607.64706  23644028.63509  23644033.14606
  24792204.51208    600152.00808    474829.63105  24792203.93008  24792209.21505
  21950619.15909  -3117278.44909  -2401165.20007  21950620.39909  21950623.92407
  21413777.53209   1732358.57609   1350564.45708  21413778.68409  21413783.16408
 94  3 17  8 53  0.0000000  0  8  2 19 31 27 17 28 26 16             0.000446239
  22392965.26609  -2588888.98809  -1994744.55807  22392964.91509  22392970.03707
  22946636.68309   3849800.21009   2989759.16307  22946637.56809  22946642.92907
  24209126.39409  -1447662.72809  -1109138.37606  24209127.93909  24209132.39606
  20842264.66109   1590177.36009   1239973.54608  20842265.53609  20842269.64408
  23640249.43509   -302410.51909   -224081.47806  23640249.79709  23640254.11106
  24790352.91708    590436.27908    467258.92305  24790355.62608  24790360.88005
  21936317.00009  -3192434.80609  -2459728.59507  21936318.39909  21936322.07607
  21415380.13009   1740775.96609   1357123.44308  21415380.53909  21415385.01308
 94  3 17  8 53 20.0000000  0  8  2 19 31 27 17 28 26 16             0.000427987
  22377852.35309  -2668300.36409  -2056623.55007  22377853.33309  22377858.60307
  22952910.56309   3882774.77309   3015453.59207  22952912.37209  22952917.94707
  24200805.02809  -1491393.25709  -1143214.14206  24200807.11909  24200811.57406
  20843259.72809   1595405.48009   1244047.38208  20843260.47509  20843264.54508
  23636510.94609   -322047.14709   -239382.76606  23636513.01209  23636517.45006
  24788538.63708    580907.25708    459833.70605  24788541.73308  24788546.47505
  21922029.04309  -3267521.51409  -2518237.71707  21922029.93709  21922033.77107
  21417015.84209   1749369.22109   1363819.46508  21417015.89309  21417020.25808
 94  3 17  8 53 40.0000000  0  7  2 19 31 27 17 26 16                0.000409639
  22362758.34709  -2747619.46409  -2118430.64107  22362759.58209  22362764.73407
  22959192.40909   3915776.50209   3041169.18307  22959192.61709  22959197.81507
  24192522.97009  -1534926.02509  -1177135.82606  24192522.95609  24192526.97806
  20844277.33709   1600755.49009   1248216.20008  20844278.65809  20844282.54708
  23632816.27509   -341468.75109   -254516.48406  23632817.22509  23632821.52306
  21907754.22409  -3342541.73709  -2576695.03507  21907754.00109  21907757.91107
  21418684.13709   1758136.82809   1370651.34608  21418684.28009  21418688.55208
 94  3 17  8 54  0.0000000  0  7  2 19 31 27 17 26 16                0.000391334
  22347688.85409  -2826814.30409  -2180140.90807  22347689.38109  22347694.40507
  22965480.01009   3948823.24809   3066919.85007  22965481.26009  22965486.76507
  24184279.93409  -1578236.14909  -1210884.01606  24184280.96709  24184285.88806
  20845323.71109   1606250.38909   1252497.92108  20845324.33309  20845328.33008
  23629166.54109   -360647.53509   -269460.99106  23629167.59409  23629172.05506
  21893493.94709  -3417476.21509  -2635085.53807  21893494.64309  21893498.38207
  21420389.00709   1767103.46809   1377638.31508  21420390.48209  21420394.92608
 94  3 17  8 54 20.0000000  0  7  2 19 31 27 17 26 16                0.000373013
  22332641.42109  -2905882.75309  -2241752.68307  22332643.06709  22332648.07907
  22971775.79909   3981905.66709   3092698.31307  22971776.61309  22971781.85907
  24176080.15609  -1621328.24609  -1244462.30606  24176080.86609  24176084.78606
  20846396.79809   1611883.77909   1256887.55208  20846396.37109  20846400.36608
  23625563.24209   -379585.61109   -284217.92906  23625563.90609  23625568.36906
  21879246.96709  -3492334.65609  -2693416.79607  21879249.68609  21879253.40507
  21422132.59209   1776258.79809   1384772.31308  21422132.97409  21422137.17508
 94  3 17  8 54 40.0000000  0  7  2 19 31 27 17 26 16                0.000354680
  22317622.11009  -2984815.60309  -2303258.79507  22317622.79409  22317627.72807
  22978077.77909   4015029.20909   3118508.82807  22978079.78609  22978085.23007
  24167920.94009  -1664201.17209  -1277869.82506  24167922.26709  24167926.34206
  20847494.67709   1617659.95609   1261388.44808  20847495.65109  20847499.53808
  23622004.87109   -398285.05009   -298788.92706  23622005.70809  23622009.99906
  21865015.74309  -3567116.50509  -2751688.37107  21865019.13009  21865022.77207
  21423909.54909   1785601.14009   1392052.04508  21423910.70909  21423914.90808
 94  3 17  8 55  0.0000000  0  7  2 19 31 27 17 26 16                0.000336334
  22302630.75009  -3063601.50209  -2364650.40507  22302630.32609  22302635.20107
  22984394.10309   4048214.22909   3144367.24107  22984394.62709  22984400.08107
  24159807.25309  -1706844.60509  -1311098.50706  24159807.86609  24159812.48506
  20848623.87209   1623598.31109   1266015.71808  20848625.67409  20848629.57908
  23618494.10409   -416740.02009   -313169.42006  23618493.77809  23618498.06206
  21850804.53409  -3641807.92309  -2809889.47907  21850805.76609  21850809.50507
  21425725.07809   1795140.07909   1399484.96408  21425725.88609  21425730.12708
 94  3 17  8 55 20.0000000  0  7  2 19 31 27 17 26 16                0.000317961
  22287661.32809  -3142253.80409  -2425937.91307  22287663.33809  22287668.18307
  22990717.13109   4081448.88809   3170264.33607  22990719.09909  22990724.79507
  24151733.00109  -1749276.88709  -1344162.64906  24151733.06309  24151737.93006
  20849783.89609   1629692.18709   1270764.17208  20849785.25509  20849789.25708
  23615026.74709   -434959.64109   -327366.52606  23615026.46109  23615030.80706
  21836605.58709  -3716418.96709  -2868027.96407  21836607.92209  21836611.23507
  21427574.56709   1804868.38109   1407065.43308  21427576.92209  21427581.43708
 94  3 17  8 55 40.0000000  0  7  2 19 31 27 17 26 16                0.000299567
  22272721.73809  -3220768.79909  -2487118.43007  22272722.44709  22272727.38807
  22997052.37209   4114736.02409   3196202.32007  22997053.39409  22997059.09907
  24143699.59009  -1791491.06109  -1377056.84806  24143699.50109  24143704.63206
  20850973.65609   1635944.36709   1275635.97708  20850974.95809  20850978.99808
  23611605.00109   -452934.67109   -341373.04606  23611605.87509  23611610.19906
  21822423.65109  -3790946.16809  -2926101.11707  21822425.88209  21822429.39307
  21429462.98309   1814787.65409   1414794.71108  21429464.63509  21429469.09708
 94  3 17  8 56  0.0000000  0  7  2 19 31 27 17 26 16                0.000281153
  22257807.18009  -3299144.03709  -2548190.04907  22257808.09809  22257813.11107
  23003398.13909   4148075.28809   3222180.92807  23003397.66909  23003403.28807
  24135708.76109  -1833482.82009  -1409777.71706  24135709.27709  24135714.14706
  20852194.63009   1642357.95709   1280633.55808  20852195.52309  20852199.61008
  23608231.42609   -470664.78909   -355188.73206  23608231.85509  23608236.72706
  21808259.03609  -3865389.65709  -2984109.03607  21808259.89909  21808263.50207
  21431386.70009   1824894.54109   1422670.18308  21431387.94209  21431392.29108
 94  3 17  8 56 20.0000000  0  7  2 19 31 27 17 26 16                0.000262712
  22242917.89509  -3377383.62809  -2609155.96707  22242919.48009  22242924.49107
  23009750.28409   4181468.93609   3248201.91407  23009752.26409  23009758.02507
  24127759.77909  -1875250.77009  -1442324.20706  24127760.83509  24127765.66006
  20853446.02609   1648931.85809   1285756.05708  20853446.56709  20853450.62208
  23604900.27509   -488159.48809   -368820.97206  23604902.86809  23604907.34206
  21794110.03609  -3939747.70809  -3042050.38307  21794110.27409  21794113.71207
  21433345.48109   1835187.64009   1430690.75208  21433346.62709  21433351.10508
 94  3 17  8 56 40.0000000  0  7  2 19 31 27 17 26 16                0.000244242
  22228056.82609  -3455485.84809  -2670014.83907  22228057.15709  22228061.99207
  23016117.59309   4214924.07909   3274270.81907  23016118.64509  23016124.11707
  24119856.07109  -1916791.08009  -1474693.29506  24119856.62109  24119861.07206
  20854729.19009   1655675.73309   1291011.00208  20854729.99909  20854734.03508
  23601616.33109   -505419.08209   -382270.01506  23601618.28709  23601622.96106
  21779979.34809  -4014012.24909  -3099918.86307  21779978.05409  21779981.32207
  21435341.23309   1845676.44309   1438863.81508  21435342.53609  21435347.21608
 94  3 17  8 57  0.0000000  0  7  2 19 31 27 17 26 16                0.000225741
  22213218.78009  -3533454.14409  -2730769.35707  22213220.16909  22213225.08507
  23022495.56109   4248438.19309   3300385.68207  23022495.94609  23022501.97207
  24111993.00609  -1958103.43309  -1506884.75706  24111994.22109  24111998.48406
  20856044.29509   1662588.30809   1296397.40408  20856045.43709  20856049.40708
  23598378.07609   -522443.78609   -395536.02806  23598378.67309  23598383.41306
  21765864.36409  -4088176.76209  -3157709.40207  21765864.93209  21765868.33207
  21437374.91409   1856360.94909   1447189.37608  21437375.67209  21437380.19908
 94  3 17  8 57 20.0000000  0  7  2 19 31 27 17 26 16                0.000207209
  22198410.22109  -3611284.99809  -2791416.77107  22198409.81009  22198414.52307
  23028883.28209   4282007.94109   3326543.89107  23028884.23309  23028890.06107
  24104176.24009  -1999183.92809  -1538895.54606  24104177.45809  24104183.09106
  20857392.09509   1669671.47509   1301916.73208  20857393.38509  20857397.30108
  23595184.66509   -539228.14109   -408614.74906  23595185.15209  23595189.22806
  21751770.89209  -4162235.28009  -3215417.34508  21751771.99609  21751775.60108
  21439446.62709   1867245.29209   1455670.65308  21439446.96209  21439451.53208
 94  3 17  8 57 40.0000000  0  7  2 19 31 27 17 26 16                0.000188648
  22183622.56409  -3688979.00409  -2851957.55307  22183625.06209  22183629.61107
  23035279.97609   4315625.87009   3352739.64907  23035281.39109  23035287.68907
  24096405.34409  -2040029.20309  -1570723.03006  24096405.39509  24096409.79106
  20858771.48809   1676918.59709   1307563.81808  20858772.56409  20858776.33308
  23592034.55109   -555778.55809   -421511.18606  23592035.46109  23592039.90506
  21737698.64009  -4236187.51109  -3273042.46907  21737699.05109  21737702.75407
  21441554.66309   1878321.91009   1464301.74908  21441554.96709  21441559.35208
 94  3 17  8 58  0.0000000  0  7  2 19 31 27 17 26 16                0.000170054
  22168866.94409  -3766529.46609  -2912386.48807  22168867.57009  22168872.16407
  23041686.28709   4349291.19209   3378972.32507  23041688.06009  23041693.83207
  24088675.83809  -2080641.17209  -1602368.73006  24088677.01309  24088681.20506
  20860181.84709   1684330.63209   1313339.40908  20860182.96409  20860186.78808
  23588929.17109   -572101.10709   -434230.06706  23588929.24809  23588933.92606
  21723646.52909  -4310028.60009  -3330580.98407  21723647.50309  21723651.25607
  21443697.75909   1889590.71109   1473082.60008  21443699.27209  21443703.82908
 94  3 17  8 58 20.0000000  0  7  2 19 31 27 17 26 16                0.000151425
  22154137.20609  -3843932.72509  -2972700.71707  22154138.24809  22154142.93307
  23048102.67209   4383011.45309   3405247.82007  23048104.68209  23048110.30607
  24080989.96408  -2121021.31908  -1633833.79606  24080992.06808  24080996.51206
  20861625.27309   1691911.20109   1319246.32708  20861625.47909  20861629.33808
