     2              OBSERVATION DATA    GPS                 RINEX VERSION / TYPE
TBIN                XXXXXXXXXXXX        96-11-27 15:47:25   PGM / RUN BY / DATE 
TOPCON-GEOCOMP RINEX Formatter-Version: 96.06.XX            COMMENT             
                                                            COMMENT             
Site1                                                       MARKER NAME         
???                 ???                                     OBSERVER / AGENCY   
UNKNOWN                                                     REC# / TYPE / VERS  
UNKNOWN                                                     ANT # / TYPE        
 -3941687.5436  3354247.6802  3714867.9109                  APPROX POSITION XYZ 
LATN  35 51 05.25285   LONE 139 36 11.87762     38.908(m)   COMMENT             
LATN  35 51 05.25285   LONW 220 23 48.12238     38.908(m)   COMMENT             
        1.6901        0.0000        0.0000                  ANTENNA: DELTA H/E/N
Original slant height(m) :   1.6990 Radius Used:0.1737      COMMENT             
   --> NO OFFSETS WERE ADDED TO ANTENNA: DELTA H/E/N <--    COMMENT             
     1     1                                                WAVELENGTH FACT L1/2
     5    C1    L1    L2    P1    P2                        # / TYPES OF OBSERV 
  1996    10    23     4    26    0.000000                  TIME OF FIRST OBS   
                                                            END OF HEADER       
                            3  4                                                
Site1                                                       MARKER NAME         
 -3941687.5436  3354247.6802  3714867.9109                  APPROX POSITION XYZ 
LATN  35 51 05.25285   LONE 139 36 11.87762     38.908(m)   COMMENT             
LATN  35 51 05.25285   LONW 220 23 48.12238     38.908(m)   COMMENT             
        1.6901        0.0000        0.0000                  ANTENNA: DELTA H/E/N
        --> THIS IS A START OF A NEW SITE <--               COMMENT             
                 --> MODE: STATIC <--                       COMMENT             
 96 10 23  4 26  0.0000000  0  6 26 23 17 02 10 09                   0.000000000
  20887243.50509    -45580.71609    -25160.38808  20887243.66308  20887247.91708
  24041189.16208 -15056267.98108 -10513251.47605  24041189.08305  24041198.72105
  21660306.25709  -8888907.90909  -6883685.86007  21660305.28407  21660311.23607
  24470097.39708  -5939208.92508  -4607041.07306  24470097.84706  24470104.87806
  22680156.39409   6171838.82609   4821578.86007  22680154.74307  22680161.90907
  21664163.63009 -13271796.58009 -10296815.03008  21664163.25308  21664169.14208
 96 10 23  4 26 30.0000000  0  6 26 23 17 02 10 09                   0.000000000
  20874243.97209   -113894.35409    -78391.76008  20874244.11208  20874248.09008
  24006690.27908 -15237571.29708 -10654526.71105  24006689.73805  24006696.64005
  21636995.14409  -9011404.98109  -6979138.09007  21636994.67607  21637001.04107
  24452047.05208  -6034065.53608  -4680955.19206  24452046.69906  24452054.58806
  22677382.57508   6157265.69008   4810223.15007  22677382.02407  22677388.72907
  21631079.18709 -13445660.20509 -10432293.12608  21631078.89908  21631083.61808
 96 10 23  4 27  0.0000000  0  6 26 23 17 02 10 09                   0.000000000
  20861273.98409   -182051.11009   -131500.89408  20861274.33908  20861278.52508
  23972181.16008 -15418923.96008 -10795840.42106  23972180.24606  23972185.14906
  21613800.63009  -9133294.01909  -7074116.53107  21613800.17507  21613806.51107
  24434070.82708  -6128530.61508  -4754564.22906  24434070.10706  24434077.00806
  22674650.11009   6142902.44709   4799030.97907  22674649.14307  22674655.92907
  21598055.89909 -13619195.65109 -10567515.48308  21598055.44008  21598060.77808
 96 10 23  4 27 30.0000000  0  6 26 23 17 02 10 09                   0.000000000
  20848333.64309   -250053.85209   -184490.01508  20848333.82008  20848337.86908
  23937662.36108 -15600321.03908 -10937188.70106  23937661.55406  23937667.85506
  21590723.08309  -9254566.82109  -7168614.79507  21590722.83707  21590728.23007
  24416172.08708  -6222592.91108  -4827859.40606  24416170.17506  24416177.84206
  22671956.25509   6128750.51309   4788003.47707  22671955.83607  22671962.34507
  21565094.25009 -13792410.06909 -10702487.70108  21565094.11008  21565099.20008
 96 10 23  4 28  0.0000000  0  6 26 23 17 02 10 09                   0.000000000
  20835417.61109   -317928.16709   -237379.05508  20835417.82308  20835421.71608
  23903128.81508 -15781790.97308 -11078593.73506  23903127.52906  23903134.56606
  21567757.59109  -9375253.66509  -7262656.45507  21567756.95607  21567762.53307
  24398348.71208  -6316257.03908  -4900844.35206  24398346.52106  24398353.51506
  22669300.52009   6114793.72609   4777128.04607  22669299.68107  22669307.24307
  21532191.41209 -13965315.35409 -10837219.02108  21532191.20608  21532196.71008
 96 10 23  4 28 30.0000000  0  6 26 23 17 02 10 09                   0.000000000
  20822527.97809   -385664.48809   -290160.57408  20822527.78908  20822531.71008
  23868584.50708 -15963319.87508 -11220044.68706  23868584.41606  23868590.63106
  21544899.90409  -9495369.20709  -7356252.93907  21544899.39207  21544905.55007
  24380605.83808  -6409500.83108  -4973501.76806  24380604.11506  24380610.56206
  22666684.00709   6101041.48409   4766411.99407  22666682.42307  22666689.44007
  21499349.03009 -14137905.36109 -10971704.67407  21499348.63807  21499353.43107
 96 10 23  4 29  0.0000000  0  6 26 23 17 02 10 09                   0.000000000
  20809667.50309   -453245.32609   -342820.93508  20809667.54008  20809671.58108
  23834030.70108 -16144907.81008 -11361541.68706  23834030.54206  23834034.94606
  21522151.26109  -9614913.89309  -7449404.61107  21522150.82707  21522156.61307
  24362938.98008  -6502330.17408  -5045836.22706  24362938.01406  24362946.34406
  22664105.41909   6087490.54809   4755852.81007  22664104.17807  22664111.12507
  21466565.56409 -14310178.63409 -11105943.51907  21466565.67507  21466570.52607
 96 10 23  4 29 30.0000000  0  6 26 23 17 02 10 09                   0.000000000
  20796820.48709   -520757.40509   -395427.72108  20796820.61008  20796824.62408
  23799453.83408 -16326617.47608 -11503133.61006  23799452.46106  23799454.70006
  21499496.11209  -9733966.99709  -7542173.23707  21499495.92507  21499501.74107
  24345335.44208  -6594837.89008  -5117920.07806  24345335.10506  24345340.73706
  22661555.78808   6074095.08708   4745414.75107  22661554.98507  22661562.51907
  21433834.36509 -14482184.97009 -11239974.36408  21433834.28708  21433839.28908
 96 10 23  4 30  0.0000000  0  6 26 23 17 02 10 09                   0.000000000
  20784002.81409   -588114.09309   -447913.42508  20784003.14608  20784007.02108
  23764871.22808 -16508346.46008 -11644740.58106  23764869.33806  23764875.70406
  21476951.63309  -9852439.63709  -7634489.53607  21476950.36707  21476957.19907
  24327806.41908  -6686954.55008  -5189699.22206  24327805.74506  24327812.75306
  22659053.89008   6060948.81108   4735170.88206  22659053.41807  22659060.33006
  21401172.60209 -14653821.97709 -11373717.41107  21401172.36207  21401177.66307
 96 10 23  4 30 30.0000000  0  6 26 23 17 02 10 09                   0.000000000
  20771236.69709   -655201.33109   -500189.16708  20771236.91808  20771240.80908
  23730304.07508 -16689987.37008 -11786278.89106  23730303.40906  23730311.03306
  21454538.76809  -9970219.55209  -7726266.05507  21454538.17307  21454544.67307
  24310368.29208  -6778590.30308  -5261103.62706  24310367.53206  24310375.18306
  22656620.97008   6048157.94808   4725203.93407  22656618.85107  22656626.73807
  21368602.08409 -14824978.46409 -11507086.04107  21368601.79407  21368606.92807
 96 10 23  4 31  0.0000000  0  6 26 23 17 02 10 09                   0.000000000
  21058298.59109    853320.73709    675282.60108  21058298.88808  21058303.16808
  23995533.91708 -15296190.14208 -10700203.00806  23995533.59606  23995540.78706
  21732038.78609  -8511948.74909  -6589951.10107  21732037.64407  21732043.68807
  24592799.53108  -5294399.15808  -4104590.97906  24592800.41706  24592806.62606
  22954032.37108   7611070.60908   5943057.92906  22954032.20107  22954039.14906
  21635905.25309 -13420293.19109 -10412526.02107  21635905.01607  21635909.65907
 96 10 23  4 31 30.0000000  0  6 26 23 17 02 10 09                   0.000000000
  21045587.54909    786525.15309    623234.11308  21045588.26308  21045592.28708
  23960963.55708 -15477866.97708 -10841769.28906  23960963.42906  23960969.29206
  21709850.91609  -8628546.19409  -6680806.22307  21709850.19807  21709856.09207
  24575507.40308  -5385279.23908  -4175406.56606  24575506.57506  24575512.33906
  22951693.61908   7598770.77508   5933473.61606  22951691.66706  22951698.38106
  21603482.11309 -13590679.00809 -10545294.12007  21603481.33907  21603486.65807
 96 10 23  4 32  0.0000000  0  6 26 23 17 02 10 09                   0.000000000
  21032907.09609    719883.70309    571305.74108  21032906.87008  21032910.71808
  23926388.10508 -15659562.85208 -10983350.43506  23926388.66206  23926393.33306
  21687775.51809  -8744550.96609  -6771199.50707  21687775.27207  21687780.76307
  24558288.81508  -5475762.11308  -4245912.64006  24558287.71606  24558294.62006
  22949391.03308   7586678.97708   5924051.39406  22949389.92206  22949396.75606
  21571132.10609 -13760674.32109 -10677757.93907  21571132.31407  21571136.93007
 96 10 23  4 32 30.0000000  0  6 26 23 17 02 10 09                   0.000000000
  21020249.87209    653369.93809    519476.86108  21020249.48708  21020253.62808
  23891803.81908 -15841307.18508 -11124969.35106  23891803.62606  23891809.50706
  21665807.12609  -8859995.22809  -6861156.03307  21665806.40307  21665812.24507
  24541146.03108  -5565851.14608  -4316111.84906  24541144.77406  24541151.35106
  22947121.68508   7574758.02608   5914762.30906  22947121.81306  22947128.69206
  21538852.01009 -13930306.81909 -10809939.03607  21538852.14507  21538857.35107
 96 10 23  4 33  0.0000000  0  6 26 23 17 02 10 09                   0.000000000
  21007609.14809    586947.55709    467719.18708  21007609.78908  21007613.68308
  23857205.39308 -16023119.87508 -11266641.52306  23857204.53706  23857211.45806
  21643943.44709  -8974890.31309  -6950684.63007  21643942.70607  21643949.22707
  24524074.04608  -5655559.37408  -4386014.30006  24524074.53306  24524079.71406
  22944882.54908   7562980.36008   5905584.87306  22944880.73206  22944887.20906
  21506637.04109 -14099601.03309 -10941856.53707  21506636.80907  21506641.82107
 96 10 23  4 33 30.0000000  0  6 26 23 17 02 10 09                   0.000000000
  20994997.66309    520670.85209    416075.02808  20994997.96608  20995001.58508
  23822602.44908 -16204947.74508 -11408325.47306  23822604.25306  23822609.56406
  21622197.60809  -9089167.37009  -7039731.65707  21622196.89207  21622202.81907
  24507086.82108  -5744830.97808  -4455576.54906  24507085.79606  24507092.56606
  22942679.20708   7551407.72008   5896567.19506  22942678.51906  22942684.73506
  21474498.44909 -14268488.42709 -11073457.02707  21474498.40407  21474503.51207
 96 10 23  4 34  0.0000000  0  6 26 23 17 02 10 09                   0.000000000
  20982409.61409    454519.34409    364528.42308  20982409.60508  20982413.44808
  23787994.72308 -16386828.66608 -11550050.78506  23787992.61606  23787999.56806
  21600563.66409  -9202853.52509  -7128318.22907  21600563.30507  21600568.67507
  24490176.36708  -5833691.80708  -4524818.70806  24490176.31606  24490182.41206
  22940514.90608   7540037.31308   5887707.10606  22940514.96606  22940521.20806
  21442434.67309 -14436984.40309 -11204752.52407  21442434.73108  21442439.69107
 96 10 23  4 34 30.0000000  0  6 26 23 17 02 10 09                   0.000000000
  20969842.68509    388481.86109    313070.66808  20969842.94308  20969846.98708
  23753372.41308 -16568769.80208 -11691823.03506  23753371.79606  23753377.19806
  21579041.80109  -9315951.88309  -7216446.78707  21579040.67307  21579046.89607
  24473344.33708  -5922149.45708  -4593746.72406  24473345.03306  24473349.44306
  22938395.05008   7528890.60508   5879021.32206  22938393.59906  22938400.28506
  21410441.73209 -14605112.84809 -11335761.62808  21410441.37208  21410446.06308
 96 10 23  4 35  0.0000000  0  6 26 23 17 02 10 09                   0.000000000
  20957304.57309    322590.33909    261726.66008  20957304.33408  20957308.09908
  23718744.52208 -16750737.73308 -11833616.15906  23718744.11606  23718749.41906
  21557640.66909  -9428420.39609  -7304084.55707  21557638.99207  21557644.98607
  24456590.94008  -6010182.96008  -4662344.21406  24456591.12206  24456597.26306
  22936324.33608   7518011.32508   5870543.94506  22936323.17606  22936330.07706
  21378521.86609 -14772848.88109 -11466464.95508  21378521.45608  21378526.40508
 96 10 23  4 35 30.0000000  0  6 26 23 17 02 10 09                   0.000000000
  20944795.35009    256854.08809    210503.62708  20944795.38808  20944799.07508
  23684112.78508 -16932725.84108 -11975425.00806  23684112.56106  23684118.49506
  21536352.87209  -9540283.53409  -7391250.59807  21536352.28107  21536357.71507
  24439919.41008  -6097792.46108  -4730611.33206  24439919.04306  24439926.48606
  22934304.29108   7507390.72908   5862268.12606  22934302.55906  22934309.44106
  21346673.68009 -14940212.66109 -11596878.21108  21346673.44808  21346678.36808
 96 10 23  4 36  0.0000000  0  6 26 23 17 02 10 09                   0.000000000
  20932325.40909    191325.08909    159442.08608  20932325.31508  20932329.25708
  23649489.17008 -17114675.37308 -12117203.77006  23649487.02406  23649493.85306
  21515187.51209  -9651511.66009  -7477921.83207  21515186.79107  21515191.22507
  24423335.47308  -6184938.96308  -4798517.66006  24423335.84106  24423341.48406
  22932335.56908   7497046.44508   5854207.61806  22932333.80106  22932340.87806
  21314896.78009 -15107200.55209 -11726998.57508  21314896.34108  21314901.66208
 96 10 23  4 36 30.0000000  0  6 26 23 17 02 10 09                   0.000000000
  20919891.05909    125983.70009    108526.74008  20919891.33508  20919894.88808
  23614873.20408 -17296578.19008 -12258946.16006  23614872.95106  23614877.98706
  21494139.80109  -9762116.44409  -7564107.34807  21494138.91107  21494143.99907
  24406835.13908  -6271650.29408  -4866084.88806  24406835.14806  24406841.50506
  22930412.82308   7486941.73708   5846333.79406  22930411.53906  22930418.33206
  21283186.35609 -15273837.77809 -11856845.67908  21283186.24908  21283191.66708
 96 10 23  4 37  0.0000000  0  6 26 23 17 02 10 09                   0.000000000
  20907480.28709     60764.90109     57706.91708  20907480.65008  20907484.56808
  23580257.80108 -17478488.62208 -12400694.50006  23580257.71906  23580260.80506
  21473199.39409  -9872160.52409  -7649855.95907  21473198.09407  21473203.50007
  24390404.98308  -6357990.81508  -4933363.15706  24390404.49006  24390411.70506
  22928519.51408   7476993.70808   5838582.05706  22928518.80406  22928524.61606
  21251534.96209 -15440165.94409 -11986451.95708  21251535.08908  21251539.98908
 96 10 23  4 37 30.0000000  0  6 26 23 17 02 10 09                   0.000000000
  20895099.92809     -4291.78309      7013.42508  20895100.74908  20895104.48508
  23545647.53708 -17660364.53508 -12542415.92906  23545647.55106  23545652.54006
  21452371.86509  -9981600.51909  -7735133.84207  21452372.18107  21452377.97907
  24374051.39508  -6443926.86208  -5000326.25706  24374051.46106  24374057.60606
  22926662.20608   7467239.73608   5830981.55006  22926661.29506  22926668.78906
  21219954.06809 -15606129.28409 -12115773.95908  21219953.83408  21219958.52508
 96 10 23  4 38  0.0000000  0  6 26 23 17 02 10 09                   0.000000000
  20882742.77509    -69231.56809    -43588.98208  20882742.82908  20882746.66208
  23511035.01208 -17842254.12608 -12684148.00106  23511033.39206  23511039.76306
  21431656.32409 -10090464.10109  -7819962.58907  21431655.98007  21431662.06907
  24357767.79208  -6529502.18908  -5067008.26606  24357767.33706  24357773.70606
  22924839.03408   7457656.09808   5823513.73306  22924837.88006  22924845.02206
  21188440.89209 -15771731.79809 -12244814.79908  21188440.76008  21188445.35208
 96 10 23  4 38 30.0000000  0  6 26 23 17 02 10 09                   0.000000000
  20870416.25709   -134005.29409    -94061.98108  20870416.71808  20870420.39008
  23476427.06208 -18024106.18108 -12825850.81506  23476428.28306  23476435.30806
  21411063.84109 -10198679.26609  -7904286.07907  21411063.31807  21411069.70407
  24341564.97108  -6614642.85808  -5133351.59806  24341565.93806  24341570.55306
  22923062.24408   7448319.21708   5816238.22906  22923061.32806  22923068.38806
  21157014.02809 -15936876.72909 -12373499.07608  21157013.94708  21157018.51608
 96 10 23  4 39  0.0000000  0  6 26 23 17 02 10 09                   0.000000000
  20858120.37309   -198624.22109   -144414.36208  20858120.33408  20858124.18208
  23441821.39308 -18205968.32208 -12967561.50106  23441821.27706  23441827.94406
  21390589.31109 -10306270.81309  -7988123.62107  21390589.33807  21390595.49307
  24325446.40608  -6699359.51808  -5199364.51706  24325446.18206  24325450.89806
  22921328.37308   7439210.08608   5809140.19106  22921328.00506  22921335.20706
  21125671.23509 -16101586.61909 -12501844.35908  21125670.97508  21125676.14408
 96 10 23  4 39 30.0000000  0  6 26 23 17 02 10 09                   0.000000000
  21145647.82609   1312342.60309   1032962.41008  21145647.46908  21145651.73108
  23707006.95108 -16812415.69308 -11881676.30206  23707005.90806  23707010.69006
  21670029.58809  -8837810.45909  -6843868.77507  21670028.34507  21670033.82807
  24609200.80608  -5208207.58008  -4037427.86306  24609200.89106  24609207.46706
  23219434.47608   9005763.74608   7029831.33906  23219433.19906  23219441.60206
  21394204.20609 -14690436.96209 -11402247.15108  21394203.81708  21394208.62008
 96 10 23  4 40  0.0000000  0  6 26 23 17 02 10 09                   0.000000000
  21133412.68909   1248049.05609    982863.57108  21133413.12408  21133416.91008
  23672396.77408 -16994296.65508 -12023401.70906  23672396.05406  23672401.21206
  21649791.20709  -8944155.81409  -6926735.26307  21649790.82907  21649797.25207
  24593251.72808  -5292026.28708  -4102741.06506  24593249.79506  24593257.11706
  23217791.46608   8997126.21808   7023100.75406  23217790.20106  23217796.33606
  21363024.01509 -14854289.46109 -11529924.34208  21363023.76408  21363028.50908
 96 10 23  4 40 30.0000000  0  6 26 23 17 02 10 09                   0.000000000
  21121208.03909   1183913.94309    932888.17808  21121208.43608  21121212.05408
  23637785.81908 -17176178.08908 -12165127.43106  23637784.41106  23637789.65806
  21629673.67109  -9049878.09409  -7009116.24307  21629673.13007  21629679.15507
  24577387.02908  -5375393.05708  -4167702.09206  24577385.61406  24577392.76306
  23216187.91108   8988700.43408   7016535.19906  23216186.98606  23216192.67206
  21331920.76509 -15017739.77109 -11657288.14308  21331920.12508  21331924.80208
 96 10 23  4 41  0.0000000  0  6 26 23 17 02 10 09                   0.000000000
  21109038.36109   1119960.00109    883053.95608  21109038.38208  21109042.11408
  23603176.10808 -17358042.68308 -12306840.02306  23603176.54606  23603181.71206
  21609677.89609  -9154958.18809  -7090996.80407  21609677.07907  21609683.11807
  24561611.67008  -5458293.09308  -4232299.43406  24561610.06906  24561617.65206
  23214629.81608   8980507.75108   7010151.26806  23214627.18706  23214633.43806
  21300896.06909 -15180770.34109 -11784324.86508  21300896.02208  21300901.23608
 96 10 23  4 41 30.0000000  0  6 26 23 17 02 10 09                   0.000000000
  21096902.91509   1056191.71609    833364.41008  21096903.55208  21096907.74508
  23568582.52308 -17539842.31708 -12448502.00506  23568581.46206  23568586.95906
  21589809.12809  -9259367.54909  -7172354.73107  21589808.42307  21589814.52807
  24545927.46408  -5540713.34908  -4296522.92806  24545927.15606  24545933.89606
  23213118.70808   8972571.17508   7003966.88806  23213118.15206  23213123.76706
  21269958.17709 -15343348.58909 -11911009.14008  21269958.02408  21269963.74808
 96 10 23  4 42  0.0000000  0  6 26 23 17 02 10 09                   0.000000000
  21084798.07209    992579.36609    783796.36308  21084798.50208  21084802.28208
  23533996.15108 -17721594.82808 -12590127.28806  23533995.28506  23534000.20506
  21570064.33609  -9363124.50009  -7253204.29307  21570063.80807  21570070.66707
  24530329.04908  -5622685.83108  -4360397.50006  24530328.50106  24530334.45806
  23211653.41508   8964874.47608   6997969.43206  23211652.67306  23211660.32606
  21239105.79209 -15505482.70409 -12037347.33908  21239105.25808  21239110.28908
                            2                                                   
            --> ANTENNA STARTED MOVING  <--                 COMMENT             
                 --> MODE: STATIC <--                       COMMENT             
