     2              OBSERVATION DATA    GPS                 RINEX VERSION / TYPE
TBIN                XXXXXXXXXXXX        96-11-27 15:47:28   PGM / RUN BY / DATE 
TOPCON-GEOCOMP RINEX Formatter-Version: 96.06.XX            COMMENT             
                                                            COMMENT             
Site2                                                       MARKER NAME         
???                 ???                                     OBSERVER / AGENCY   
UNKNOWN                                                     REC# / TYPE / VERS  
UNKNOWN                                                     ANT # / TYPE        
 -3941913.3310  3353786.2551  3715060.7906                  APPROX POSITION XYZ 
LATN  35 51 12.73965   LONE 139 36 31.71421     48.892(m)   COMMENT             
LATN  35 51 12.73965   LONW 220 23 28.28579     48.892(m)   COMMENT             
        1.6720        0.0000        0.0000                  ANTENNA: DELTA H/E/N
Original slant height(m) :   1.6810 Radius Used:0.1737      COMMENT             
   --> NO OFFSETS WERE ADDED TO ANTENNA: DELTA H/E/N <--    COMMENT             
     1     1                                                WAVELENGTH FACT L1/2
     5    C1    L1    L2    P1    P2                        # / TYPES OF OBSERV 
  1996    10    23     4    26    0.000000                  TIME OF FIRST OBS   
                                                            END OF HEADER       
                            3  4                                                
Site2                                                       MARKER NAME         
 -3941913.3310  3353786.2551  3715060.7906                  APPROX POSITION XYZ 
LATN  35 51 12.73965   LONE 139 36 31.71421     48.892(m)   COMMENT             
LATN  35 51 12.73965   LONW 220 23 28.28579     48.892(m)   COMMENT             
        1.6720        0.0000        0.0000                  ANTENNA: DELTA H/E/N
        --> THIS IS A START OF A NEW SITE <--               COMMENT             
                 --> MODE: STATIC <--                       COMMENT             
 96 10 23  4 26  0.0000000  0  6 26 23 17 02 09 10                   0.000000000
  20939319.46209   1614939.30209   1264878.62307  20939319.31408  20939323.82407
  24093610.35008  -9751558.70408  -7582244.67406  24093609.94806  24093615.63006
  21712770.05809  -5360891.60809  -4155923.63607  21712769.03007  21712775.00807
  24521782.82508  -1808272.88008  -1396715.14106  24521781.42706  24521788.16506
  21716648.58809  -9160016.40409  -7106400.78307  21716647.85707  21716654.03207
  22732076.94509   6687792.55509   5208677.57307  22732075.86807  22732082.71407
 96 10 23  4 26 30.0000000  0  6 26 23 17 02 09 10                   0.000000000
  20939611.52409   1616474.95409   1266075.26308  20939611.08208  20939616.04708
  24072402.11308  -9863006.67008  -7669087.15306  24072401.10806  24072408.40106
  21702754.27209  -5413522.19609  -4196934.44807  21702753.58607  21702759.72007
  24517025.59708  -1833269.56608  -1416192.96006  24517024.87306  24517032.13406
  21696856.00309  -9264024.38609  -7187445.91107  21696855.78807  21696861.99507
  22742599.35009   6743083.16309   5251761.13907  22742596.92707  22742604.48907
 96 10 23  4 27  0.0000000  0  6 26 23 17 02 09 10                   0.000000000
  20939949.57009   1618251.36709   1267459.51208  20939949.27808  20939953.51208
  24051199.83408  -9974420.11408  -7755902.72306  24051199.82906  24051205.83106
  21692870.96009  -5465460.84509  -4237406.09607  21692870.01507  21692876.06207
  24512360.12408  -1857790.79308  -1435300.29406  24512359.11706  24512363.90306
  21677143.33009  -9367620.32709  -7268169.96107  21677142.05707  21677148.17407
  22753175.92009   6798667.57009   5295073.63907  22753174.58507  22753181.52607
 96 10 23  4 27 30.0000000  0  6 26 23 17 02 09 10                   0.000000000
  20940330.74209   1620254.50509   1269020.42808  20940330.33308  20940335.37608
  24030004.01508 -10085805.25208  -7842696.24006  24030002.88606  24030010.44206
  21683118.40809  -5516710.55809  -4277340.90107  21683117.44307  21683123.27107
  24507783.29208  -1881836.54208  -1454037.12106  24507782.96406  24507788.75106
  21657505.39109  -9470822.61309  -7348587.25207  21657503.39607  21657509.23707
  22763807.27009   6854536.01809   5338607.46607  22763805.97907  22763812.92207
 96 10 23  4 28  0.0000000  0  6 26 23 17 02 09 10                   0.000000000
  20940750.83709   1622462.68409   1270741.12408  20940750.33608  20940754.79808
  24008809.28508 -10197186.59708  -7929486.80406  24008807.92906  24008814.91806
  21673491.96809  -5567297.69109  -4316759.40207  21673491.09807  21673496.99307
  24503298.50808  -1905407.49808  -1472404.00606  24503297.52706  24503303.73706
  21637938.50709  -9573639.19309  -7428704.00807  21637937.70707  21637944.29107
  22774490.43509   6910676.21209   5382353.05507  22774488.98807  22774496.00107
 96 10 23  4 28 30.0000000  0  6 26 23 17 02 09 10                   0.000000000
  20941213.25109   1624893.87809   1272635.59308  20941213.04008  20941217.84208
  23987619.20308 -10308541.95108  -8016257.12006  23987618.25006  23987624.70306
  21663989.87509  -5617228.57509  -4355666.54607  21663989.28807  21663995.53507
  24498908.56708  -1928473.17208  -1490377.18306  24498909.05306  24498913.59106
  21618448.26709  -9676055.55209  -7508508.89407  21618448.60607  21618455.01507
  22785227.64909   6967105.93009   5426324.24107  22785227.19307  22785234.16507
 96 10 23  4 29  0.0000000  0  6 26 23 17 02 09 10                   0.000000000
  20941722.35509   1627572.82709   1274723.11308  20941722.63608  20941727.65308
  23966434.56308 -10419864.06208  -8103001.52906  23966434.11206  23966440.96506
  21654614.62609  -5666496.29309  -4394056.94407  21654613.97607  21654620.13307
  24494615.45208  -1951032.07908  -1507955.47806  24494614.38606  24494620.25506
  21599037.29009  -9778062.95209  -7587995.11407  21599036.89107  21599043.39707
  22796021.79309   7023829.25409   5470524.21307  22796020.78507  22796028.63207
 96 10 23  4 29 30.0000000  0  6 26 23 17 02 09 10                   0.000000000
  20942273.41309   1630465.43709   1276977.12508  20942273.22208  20942278.15408
  23945253.78008 -10531163.02708  -8189727.90506  23945253.84006  23945261.40806
  21645360.30009  -5715127.52109  -4431951.36807  21645359.81607  21645365.96007
  24490411.07708  -1973124.46608  -1525170.23406  24490411.03606  24490416.54506
  21579703.64409  -9879658.54909  -7667160.45107  21579703.70707  21579710.15907
  22806873.34609   7080852.99309   5514958.26807  22806872.49607  22806879.21807
 96 10 23  4 30  0.0000000  0  6 26 23 17 02 09 10                   0.000000000
  20942866.14409   1633580.02909   1279404.10608  20942865.74808  20942870.54008
  23924085.92208 -10642414.70908  -8276417.43506  23924084.68906  23924090.79006
  21636229.83509  -5763111.69409  -4469341.59307  21636228.46407  21636234.71407
  24486294.22408  -1994759.15808  -1542028.35906  24486294.32406  24486301.40106
  21560453.52209  -9980818.28709  -7745986.14907  21560453.79407  21560460.26107
  22817785.35009   7138192.48309   5559638.36907  22817783.96807  22817790.50307
 96 10 23  4 30 30.0000000  0  6 26 23 17 02 09 10                   0.000000000
  20943502.73309   1636926.89709   1282012.08808  20943502.74008  20943507.87808
  23902922.91208 -10753615.50008  -8363067.32106  23902923.22306  23902929.98906
  21627222.45609  -5810440.37509  -4506221.04407  21627222.18807  21627228.20407
  24482260.95508  -2015950.17808  -1558540.74906  24482260.55106  24482267.60306
  21541288.76009 -10081534.77309  -7824466.45407  21541287.78507  21541293.91307
  22828755.88608   7195850.18808   5604566.43807  22828755.59707  22828763.15907
 96 10 23  4 31  0.0000000  0  6 26 23 17 02 09 10                   0.000000000
  20944210.42309   1640642.45009   1284907.34608  20944209.73708  20944214.51908
  23881800.16008 -10864622.57308  -8449566.27306  23881799.03506  23881806.34506
  21618369.90709  -5856960.63609  -4542470.56507  21618369.55107  21618375.74307
  24478340.84208  -2036555.71908  -1574596.96406  24478340.02806  24478347.49806
  21522236.58209 -10181653.61809  -7902481.06807  21522235.86307  21522242.47507
  22839817.48209   7253972.60709   5649856.58707  22839815.96707  22839823.38707
 96 10 23  4 31 30.0000000  0  6 26 23 17 02 09 10                   0.000000000
  20944951.78909   1644541.88509   1287945.88108  20944951.70308  20944956.69208
  23860682.22308 -10975598.39308  -8536040.87706  23860680.82906  23860687.23906
  21609638.48309  -5902845.92509  -4578225.30307  21609637.85007  21609643.86607
  24474501.36808  -2056730.10008  -1590317.20106  24474502.10606  24474508.42806
  21503267.07609 -10281338.62509  -7980157.62907  21503266.33507  21503272.56907
  22850932.71209   7312382.28809   5695370.59507  22850930.79707  22850938.84807
 96 10 23  4 32  0.0000000  0  6 26 23 17 02 09 10                   0.000000000
  20945729.56609   1648630.53909   1291131.87308  20945729.92108  20945734.61608
  23839566.77808 -11086558.19308  -8622502.99506  23839565.96006  23839573.74306
  21601026.50009  -5948103.47509  -4613490.88607  21601025.70907  21601032.14907
  24470746.06708  -2076472.21508  -1605700.62606  24470745.05706  24470750.87806
  21484378.16609 -10380598.06409  -8057502.57907  21484377.83807  21484384.38707
  22862093.87809   7371035.04609   5741074.00607  22862092.45007  22862099.49007
 96 10 23  4 32 30.0000000  0  6 26 23 17 02 09 10                   0.000000000
  20946546.10409   1652921.53809   1294475.54208  20946546.21608  20946551.60808
  23818456.84508 -11197491.81008  -8708944.70806  23818456.86806  23818462.00606
  21592534.30109  -5992725.87009  -4648261.54307  21592534.17707  21592540.38907
  24467076.46508  -2095745.82208  -1620718.96306  24467076.93306  24467083.43206
  21465572.82109 -10479420.09309  -8134506.69107  21465572.73607  21465578.94007
  22873301.36109   7429933.32809   5786968.74107  22873301.00207  22873307.86907
 96 10 23  4 33  0.0000000  0  6 26 23 17 02 09 10                   0.000000000
  20947395.37009   1657379.63509   1297949.40708  20947394.77807  20947399.61608
  23797348.41308 -11308418.02008  -8795380.65606  23797347.06606  23797353.61206
  21584162.87509  -6036723.38709  -4682545.28807  21584161.75607  21584167.92507
  24463496.21808  -2114562.86608  -1635381.55306  24463495.49906  24463502.86406
  21446846.15109 -10577828.19409  -8211188.25507  21446846.31407  21446852.21707
  22884549.98008   7489050.66208   5833034.15807  22884550.45907  22884557.05907
 96 10 23  4 33 30.0000000  0  6 26 23 17 02 09 10                   0.000000000
  20948276.93009   1662020.48509   1301565.68107  20948277.44707  20948282.65207
  23776243.99708 -11419322.36508  -8881799.56206  23776242.54506  23776249.17206
  21575914.81209  -6080065.82909  -4716318.58407  21575914.05107  21575920.32407
  24460005.45408  -2132906.28208  -1649675.07206  24460004.67106  24460010.21906
  21428204.73709 -10675792.44809  -8287523.96107  21428204.57307  21428210.38107
  22895847.22409   7548410.02609   5879288.17707  22895845.77907  22895853.84407
 96 10 23  4 34  0.0000000  0  6 26 23 17 02 09 10                   0.000000000
  20949195.41809   1666838.97509   1305320.37707  20949194.75507  20949199.41407
  23755138.95008 -11530227.29308  -8968218.91906  23755139.18806  23755145.62906
  21567789.45109  -6122764.90509  -4749590.55407  21567788.58807  21567795.00307
  24456603.65808  -2150786.42308  -1663607.62806  24456602.47906  24456608.09506
  21409647.04809 -10773312.89009  -8363513.85107  21409646.78807  21409652.53707
  22907191.82809   7608024.09409   5925740.67207  22907190.18907  22907197.07607
 96 10 23  4 34 30.0000000  0  6 26 23 17 02 09 10                   0.000000000
  20950145.72209   1671837.41109   1309215.27607  20950145.72107  20950150.74807
  23734035.76908 -11641126.58708  -9054633.88606  23734034.89506  23734041.54306
  21559788.27909  -6164810.33309  -4782353.18907  21559787.45107  21559793.81607
  24453289.83308  -2168197.51608  -1677174.70006  24453288.35506  24453295.80606
  21391172.54709 -10870399.95609  -8439166.03507  21391171.66707  21391177.87207
  22918590.88209   7667927.77009   5972418.83007  22918589.04807  22918597.16307
 96 10 23  4 35  0.0000000  0  6 26 23 17 02 09 10                   0.000000000
  20951130.48109   1677008.84609   1313244.99407  20951130.08907  20951134.56207
  23712932.58708 -11752025.66008  -9141048.67906  23712931.95006  23712937.24606
  21551912.32509  -6206198.87009  -4814603.96707  21551911.71508  21551917.68207
  24450062.84608  -2185157.41608  -1690390.15806  24450062.67006  24450068.31806
  21372776.45709 -10967067.65009  -8514491.44407  21372776.20807  21372781.91907
  22930046.84009   7728125.91009   6019326.43007  22930044.43207  22930052.18507
 96 10 23  4 35 30.0000000  0  6 26 23 17 02 09 10                   0.000000000
  20952151.70109   1682373.55909   1317425.31307  20952150.68707  20952155.20007
  23691832.25708 -11862906.84408  -9227449.53506  23691831.32606  23691837.95406
  21544158.97309  -6246944.03209  -4846353.41607  21544158.17108  21544164.33807
  24446923.60608  -2201655.31508  -1703245.64006  24446922.49906  24446929.02006
  21354459.43509 -11063325.10809  -8589497.17507  21354459.24107  21354465.38807
  22941557.56509   7788620.73609   6066465.22607  22941556.44507  22941563.53607
 96 10 23  4 36  0.0000000  0  6 26 23 17 02 09 10                   0.000000000
  20953209.28909   1687936.06109   1321759.74307  20953209.42407  20953214.15907
  23670737.40708 -11973758.91008  -9313827.70106  23670737.04606  23670743.33306
  21536524.77309  -6287063.63709  -4877615.41907  21536523.63608  21536529.69907
  24443870.08008  -2217699.66808  -1715747.65806  24443868.95206  24443875.97906
  21336212.42209 -11159216.20109  -8664217.43307  21336211.73207  21336217.30607
  22953121.08009   7849382.42909   6113811.97007  22953119.60407  22953126.30907
 96 10 23  4 36 30.0000000  0  6 26 23 17 02 09 10                   0.000000000
  20954305.36909   1693691.95409   1326244.88008  20954305.27107  20954309.28408
  23649652.71008 -12084558.48908  -9400164.96106  23649652.11706  23649659.21706
  21529009.96109  -6326554.18109  -4908387.23607  21529008.76708  21529014.81507
  24440900.74108  -2233303.04808  -1727906.09906  24440899.43506  24440906.13406
  21318032.46909 -11254750.91409  -8738659.98207  21318031.97907  21318038.16007
  22964729.69009   7910389.42909   6161349.87807  22964729.12707  22964734.90907
 96 10 23  4 37  0.0000000  0  6 26 23 17 02 09 10                   0.000000000
  20955438.08009   1699647.05409   1330885.23407  20955438.15007  20955442.88507
  23628582.20108 -12195289.14108  -9486448.51106  23628581.37306  23628587.24106
  21521616.11009  -6365407.42409  -4938662.46907  21521615.19108  21521621.11207
  24438017.61308  -2248459.05608  -1739715.92706  24438017.14906  24438021.56206
  21299925.48909 -11349900.06009  -8812802.10307  21299925.52607  21299931.40107
  22976383.51209   7971629.71709   6209069.55907  22976381.90007  22976389.60307
 96 10 23  4 37 30.0000000  0  6 26 23 17 02 09 10                   0.000000000
  20956607.38709   1705794.17709   1335675.22607  20956607.54307  20956611.83707
  23607522.74408 -12305955.33308  -9572681.83806  23607522.26206  23607527.82606
  21514343.12209  -6403626.67609  -4968443.68107  21514342.45107  21514348.15007
  24435215.54708  -2263180.67808  -1751187.26706  24435214.33406  24435221.24206
  21281894.95309 -11444654.53209  -8886636.67807  21281894.60307  21281900.19207
  22988079.86109   8033093.99909   6256963.76607  22988079.45007  22988085.84707
 96 10 23  4 38  0.0000000  0  6 26 23 17 02 09 10                   0.000000000
  20957813.46709   1712127.96409   1340610.67007  20957812.89707  20957817.41507
  23586474.01508 -12416565.48708  -9658871.50006  23586473.85906  23586480.21406
  21507193.30609  -6441199.80909  -4997721.41807  21507192.40507  21507198.27807
  24432495.31908  -2277471.79908  -1762323.13306  24432494.78506  24432500.01606
  21263945.75709 -11538978.45109  -8960135.75307  21263945.30107  21263950.73507
  22999821.62709   8094798.34409   6305045.04907  22999820.71707  22999827.55507
 96 10 23  4 38 30.0000000  0  6 26 23 17 02 09 10                   0.000000000
  20959050.45309   1718626.54509   1345674.53107  20959049.72608  20959053.98307
  23565432.81608 -12527139.34108  -9745032.87006  23565432.36206  23565437.76206
  21500166.65809  -6478125.78609  -5026494.88907  21500165.60607  21500171.27207
  24429858.40908  -2291329.53308  -1773121.33606  24429857.75006  24429863.52406
  21246083.44909 -11632846.08809  -9033279.28907  21246082.45107  21246088.41107
  23011611.01009   8156748.18209   6353317.64107  23011609.33907  23011616.65407
 96 10 23  4 39  0.0000000  0  6 26 23 17 02 09 10                   0.000000000
  20960317.30309   1725287.69309   1350865.05808  20960317.36508  20960321.92608
  23544392.13208 -12637715.50308  -9831196.06906  23544390.47906  23544395.96906
  21493260.63709  -6514420.41809  -5054776.39607  21493259.47207  21493264.96807
  24427303.97908  -2304755.52208  -1783583.06306  24427302.86306  24427307.79906
  21228305.55309 -11726270.97909  -9106077.82607  21228304.73507  21228310.62807
  23023444.13009   8218933.54309   6401773.72507  23023443.18107  23023450.18507
 96 10 23  4 39 30.0000000  0  6 26 23 17 02 09 10                   0.000000000
  20961617.77309   1732117.73609   1356187.20008  20961617.26008  20961621.07708
  23523347.66808 -12748297.71708  -9917363.96606  23523347.68306  23523353.05606
  21486474.30109  -6550081.38809  -5082564.14607  21486472.94807  21486478.80807
  24424834.50408  -2317730.38608  -1793693.28106  24424833.36006  24424838.98906
  21210610.56509 -11819256.57109  -9178534.05607  21210610.12907  21210615.55307
  23035325.95809   8281366.66709   6450422.89307  23035323.48207  23035330.25207
 96 10 23  4 40  0.0000000  0  6 26 23 17 02 09 10                   0.000000000
  20962947.40109   1739111.02909   1361636.54307  20962947.70607  20962952.17607
  23502302.99208 -12858886.01508 -10003536.61506  23502302.40206  23502308.70006
  21479805.65309  -6585123.10409  -5109869.35007  21479804.86707  21479810.60707
  24422453.17908  -2330251.64008  -1803450.05606  24422450.59406  24422455.78106
  21192996.70109 -11911817.46109  -9250659.35307  21192995.94807  21193001.52807
  23047250.04609   8344030.34309   6499251.71107  23047248.09007  23047255.42807
 96 10 23  4 40 30.0000000  0  6 26 23 17 02 09 10                   0.000000000
  20964314.54509   1746291.84009   1367231.99908  20964314.09908  20964318.47808
  23481264.83008 -12969445.66908 -10089686.93106  23481263.68806  23481270.53306
  21473261.43709  -6619512.67209  -5136666.39807  21473260.65607  21473266.38407
  24420161.15008  -2342291.88908  -1812831.96906  24420159.36406  24420166.92706
  21175464.90009 -12003947.13409  -9322448.62807  21175464.54907  21175469.85807
  23059220.39909   8406934.87109   6548268.19107  23059218.30207  23059225.68707
 96 10 23  4 41  0.0000000  0  6 26 23 17 02 09 10                   0.000000000
  20965716.48909   1753658.29209   1372972.10608  20965715.87808  20965720.55208
  23460229.26808 -13079984.03408 -10175820.66306  23460228.82706  23460235.40806
  21466840.13809  -6653255.58609  -5162959.55507  21466839.52107  21466844.98007
  24417959.13908  -2353860.93508  -1821846.73406  24417957.63606  24417964.32806
  21158013.37009 -12095652.63409  -9393907.38007  21158013.27507  21158019.01807
  23071235.97909   8470076.92609   6597469.76907  23071233.77707  23071241.64707
 96 10 23  4 41 30.0000000  0  6 26 23 17 02 09 10                   0.000000000
  20967153.55709   1761211.60009   1378857.83007  20967152.95607  20967157.55607
  23439207.43308 -13190456.22308 -10261902.83306  23439206.73106  23439212.58406
  21460546.89909  -6686326.62609  -5188729.17907  21460546.27707  21460552.08107
  24415848.93408  -2364948.99708  -1830486.71306  24415847.64206  24415854.30006
  21140648.27109 -12186904.68509  -9465012.80007  21140648.31507  21140654.45907
  23083298.77908   8533476.28508   6646871.84607  23083298.84707  23083305.46907
 96 10 23  4 42  0.0000000  0  6 26 23 17 02 09 10                   0.000000000
  20968623.32509   1768940.15309   1384880.10208  20968623.73908  20968628.13908
  23418198.34708 -13300862.02808 -10347933.26206  23418197.62506  23418202.55406
  21454381.47609  -6718725.96409  -5213975.40007  21454380.83507  21454386.55407
  24413827.40608  -2375570.01308  -1838762.72406  24413826.65206  24413833.40706
  21123371.24709 -12277693.34309  -9535757.14007  21123371.79507  21123377.52807
  23095412.93308   8597134.85608   6696475.88407  23095412.14807  23095419.81907
                            2                                                   
            --> ANTENNA STARTED MOVING  <--                 COMMENT             
                 --> MODE: STATIC <--                       COMMENT             
